VidTime SimTime LonAccel LatAccel Throttle Brake Gear Heading HeadingError HeadwayDistance HeadwayTime Lane LaneOffset RoadOffset Steer TailwayDistance TailwayTime Velocity LatVelocity VertVelocity XPos YPos ZPos Roll Pitch Yaw EngineRPM SlipFR SlipFL SlipRR SlipRL User1 User2 User3 User4 User5 User6 User7 User8 User9 User10 User11 User12 User13 User14 User15 User16 User17 User18 User19 User20 User21 
0.0166666 261.283 3.203365 -0.058632 38.020576 0.000000 4.000000 89.726453 -0.004769 10000.000000 1709.899027 -2.000000 -0.553344 -4.846656 -0.081939 10000.000000 1709.899027 5.847536 -0.016071 0.103204 -6104.846191 1895.186523 -0.529144 0.024464 1.083241 89.726439 2194.881592 0.043405 0.042927 0.001778 0.001653 0.000000 0.000000 0.000000 0.000000 0.000000 0.000000 0.000000 0.000000 0.000000 0.000000 0.000000 0.000000 0.000000 0.000000 0.000000 0.000000 0.000000 0.000000 0.000000 0.000000 0.000000 
0.0333667 261.3 3.196222 -0.059033 38.020576 0.000000 4.000000 89.716276 -0.004947 10000.000000 1694.484662 -2.000000 -0.553832 -4.846168 -0.081939 10000.000000 1694.484662 5.900734 -0.016031 0.104228 -6104.845703 1895.284546 -0.529259 0.024909 1.074124 89.716262 2204.678711 0.043303 0.042822 0.001781 0.001651 0.000000 0.000000 0.000000 0.000000 0.000000 0.000000 0.000000 0.000000 0.000000 0.000000 0.000000 0.000000 0.000000 0.000000 0.000000 0.000000 0.000000 0.000000 0.000000 0.000000 0.000000 
0.0500333 261.317 3.189878 -0.059699 38.020576 0.000000 4.000000 89.706004 -0.005126 10000.000000 1679.374642 -2.000000 -0.554808 -4.845192 -0.081468 10000.000000 1679.374642 5.953830 -0.015986 0.105263 -6104.844727 1895.383301 -0.529358 0.025409 1.065007 89.705989 2213.653320 0.043182 0.042695 0.001782 0.001648 0.000000 0.000000 0.000000 0.000000 0.000000 0.000000 0.000000 0.000000 0.000000 0.000000 0.000000 0.000000 0.000000 0.000000 0.000000 0.000000 0.000000 0.000000 0.000000 0.000000 0.000000 
0.0667333 261.333 3.182841 -0.060627 38.294022 0.000000 4.000000 89.695642 -0.005307 10000.000000 1664.569636 -2.000000 -0.555296 -4.844704 -0.081468 10000.000000 1664.569636 6.006790 -0.015941 0.106287 -6104.844238 1895.483032 -0.529440 0.025952 1.055943 89.695628 2222.006348 0.043015 0.042521 0.001782 0.001643 0.000000 0.000000 0.000000 0.000000 0.000000 0.000000 0.000000 0.000000 0.000000 0.000000 0.000000 0.000000 0.000000 0.000000 0.000000 0.000000 0.000000 0.000000 0.000000 0.000000 0.000000 
0.0833999 261.35 3.174005 -0.061819 38.294022 0.000000 4.000000 89.685185 -0.005490 10000.000000 1650.071289 -2.000000 -0.556272 -4.843728 -0.081154 10000.000000 1650.071289 6.059575 -0.015900 0.107279 -6104.843262 1895.583496 -0.529506 0.026536 1.046963 89.685171 2230.182617 0.042814 0.042314 0.001781 0.001637 0.000000 0.000000 0.000000 0.000000 0.000000 0.000000 0.000000 0.000000 0.000000 0.000000 0.000000 0.000000 0.000000 0.000000 0.000000 0.000000 0.000000 0.000000 0.000000 0.000000 0.000000 
0.1001 261.367 3.163315 -0.063219 38.294022 0.000000 4.000000 89.674646 -0.005674 10000.000000 1635.878064 -2.000000 -0.557248 -4.842752 -0.080840 10000.000000 1635.878064 6.112156 -0.015868 0.108221 -6104.842285 1895.684937 -0.529556 0.027157 1.038077 89.674632 2237.967041 0.042584 0.042078 0.001779 0.001629 0.000000 0.000000 0.000000 0.000000 0.000000 0.000000 0.000000 0.000000 0.000000 0.000000 0.000000 0.000000 0.000000 0.000000 0.000000 0.000000 0.000000 0.000000 0.000000 0.000000 0.000000 
0.116767 261.383 3.150872 -0.064747 39.524529 0.000000 4.000000 89.664032 -0.005859 10000.000000 1621.988141 -2.000000 -0.557736 -4.842264 -0.080840 10000.000000 1621.988141 6.164507 -0.015844 0.109096 -6104.841797 1895.787354 -0.529591 0.027816 1.029286 89.664017 2245.856201 0.042332 0.041820 0.001775 0.001621 0.000000 0.000000 0.000000 0.000000 0.000000 0.000000 0.000000 0.000000 0.000000 0.000000 0.000000 0.000000 0.000000 0.000000 0.000000 0.000000 0.000000 0.000000 0.000000 0.000000 0.000000 
0.133467 261.4 3.137680 -0.066371 39.524529 0.000000 4.000000 89.653364 -0.006045 10000.000000 1608.388723 -2.000000 -0.558712 -4.841288 -0.080369 10000.000000 1608.388723 6.216641 -0.015831 0.109894 -6104.840820 1895.890503 -0.529611 0.028512 1.020585 89.653349 2255.057373 0.042126 0.041607 0.001772 0.001615 0.000000 0.000000 0.000000 0.000000 0.000000 0.000000 0.000000 0.000000 0.000000 0.000000 0.000000 0.000000 0.000000 0.000000 0.000000 0.000000 0.000000 0.000000 0.000000 0.000000 0.000000 
0.150133 261.417 3.125912 -0.067968 39.524529 0.000000 4.000000 89.642633 -0.006232 10000.000000 1595.059128 -2.000000 -0.559688 -4.840312 -0.080369 10000.000000 1595.059128 6.268605 -0.015829 0.110612 -6104.839844 1895.994507 -0.529620 0.029240 1.011982 89.642618 2263.789795 0.041943 0.041416 0.001768 0.001610 0.000000 0.000000 0.000000 0.000000 0.000000 0.000000 0.000000 0.000000 0.000000 0.000000 0.000000 0.000000 0.000000 0.000000 0.000000 0.000000 0.000000 0.000000 0.000000 0.000000 0.000000 
0.166833 261.433 3.115433 -0.069527 41.028481 0.000000 4.000000 89.631855 -0.006420 10000.000000 1581.989827 -2.000000 -0.560664 -4.839336 -0.079898 10000.000000 1581.989827 6.320407 -0.015837 0.111246 -6104.838867 1896.099487 -0.529616 0.029994 1.003495 89.631840 2272.346680 0.041756 0.041221 0.001764 0.001606 0.000000 0.000000 0.000000 0.000000 0.000000 0.000000 0.000000 0.000000 0.000000 0.000000 0.000000 0.000000 0.000000 0.000000 0.000000 0.000000 0.000000 0.000000 0.000000 0.000000 0.000000 
0.1835 261.45 3.105781 -0.070955 41.028481 0.000000 4.000000 89.621043 -0.006609 10000.000000 1569.169469 -2.000000 -0.561640 -4.838360 -0.079898 10000.000000 1569.169469 6.372062 -0.015853 0.111793 -6104.837891 1896.205200 -0.529602 0.030763 0.995140 89.621028 2281.819580 0.041607 0.041064 0.001760 0.001603 0.000000 0.000000 0.000000 0.000000 0.000000 0.000000 0.000000 0.000000 0.000000 0.000000 0.000000 0.000000 0.000000 0.000000 0.000000 0.000000 0.000000 0.000000 0.000000 0.000000 0.000000 
0.2002 261.467 3.097674 -0.072268 41.712097 0.000000 4.000000 89.610197 -0.006798 10000.000000 1556.583075 -2.000000 -0.562616 -4.837384 -0.079269 10000.000000 1556.583075 6.423604 -0.015875 0.112255 -6104.836914 1896.311890 -0.529580 0.031535 0.986947 89.610182 2290.713623 0.041466 0.040915 0.001755 0.001601 0.000000 0.000000 0.000000 0.000000 0.000000 0.000000 0.000000 0.000000 0.000000 0.000000 0.000000 0.000000 0.000000 0.000000 0.000000 0.000000 0.000000 0.000000 0.000000 0.000000 0.000000 
0.216867 261.483 3.090439 -0.073363 41.712097 0.000000 4.000000 89.599316 -0.006988 10000.000000 1544.224617 -2.000000 -0.563592 -4.836408 -0.079269 10000.000000 1544.224617 6.475032 -0.015900 0.112633 -6104.835938 1896.419434 -0.529550 0.032292 0.978942 89.599301 2299.457520 0.041324 0.040766 0.001750 0.001599 0.000000 0.000000 0.000000 0.000000 0.000000 0.000000 0.000000 0.000000 0.000000 0.000000 0.000000 0.000000 0.000000 0.000000 0.000000 0.000000 0.000000 0.000000 0.000000 0.000000 0.000000 
0.233567 261.5 3.083300 -0.074305 41.712097 0.000000 4.000000 89.588422 -0.007179 10000.000000 1532.090290 -2.000000 -0.564568 -4.835432 -0.078484 10000.000000 1532.090290 6.526337 -0.015925 0.112929 -6104.834961 1896.527710 -0.529514 0.033018 0.971153 89.588407 2307.520020 0.041167 0.040602 0.001744 0.001597 0.000000 0.000000 0.000000 0.000000 0.000000 0.000000 0.000000 0.000000 0.000000 0.000000 0.000000 0.000000 0.000000 0.000000 0.000000 0.000000 0.000000 0.000000 0.000000 0.000000 0.000000 
0.250233 261.517 3.075355 -0.075004 41.712097 0.000000 4.000000 89.577501 -0.007369 10000.000000 1520.180216 -2.000000 -0.565544 -4.834456 -0.078484 10000.000000 1520.180216 6.577492 -0.015947 0.113144 -6104.833984 1896.636963 -0.529474 0.033693 0.963598 89.577486 2315.155029 0.040973 0.040403 0.001736 0.001594 0.000000 0.000000 0.000000 0.000000 0.000000 0.000000 0.000000 0.000000 0.000000 0.000000 0.000000 0.000000 0.000000 0.000000 0.000000 0.000000 0.000000 0.000000 0.000000 0.000000 0.000000 
0.266933 261.533 3.065364 -0.075521 41.882996 0.000000 4.000000 89.566566 -0.007560 10000.000000 1508.500109 -2.000000 -0.566520 -4.833480 -0.077699 10000.000000 1508.500109 6.628445 -0.015964 0.113278 -6104.833008 1896.747070 -0.529431 0.034299 0.956279 89.566551 2322.725098 0.040737 0.040165 0.001726 0.001589 0.000000 0.000000 0.000000 0.000000 0.000000 0.000000 0.000000 0.000000 0.000000 0.000000 0.000000 0.000000 0.000000 0.000000 0.000000 0.000000 0.000000 0.000000 0.000000 0.000000 0.000000 
0.2836 261.55 3.053127 -0.075894 41.882996 0.000000 4.000000 89.555617 -0.007751 10000.000000 1497.050482 -2.000000 -0.567984 -4.832016 -0.077699 10000.000000 1497.050482 6.679166 -0.015974 0.113336 -6104.831543 1896.857910 -0.529387 0.034821 0.949188 89.555602 2330.489258 0.040489 0.039916 0.001716 0.001584 0.000000 0.000000 0.000000 0.000000 0.000000 0.000000 0.000000 0.000000 0.000000 0.000000 0.000000 0.000000 0.000000 0.000000 0.000000 0.000000 0.000000 0.000000 0.000000 0.000000 0.000000 
0.3003 261.567 3.039618 -0.076129 41.882996 0.000000 4.000000 89.544654 -0.007942 10000.000000 1485.825880 -2.000000 -0.568960 -4.831040 -0.076600 10000.000000 1485.825880 6.729650 -0.015975 0.113323 -6104.830566 1896.969727 -0.529343 0.035249 0.942315 89.544639 2338.356934 0.040245 0.039672 0.001706 0.001579 0.000000 0.000000 0.000000 0.000000 0.000000 0.000000 0.000000 0.000000 0.000000 0.000000 0.000000 0.000000 0.000000 0.000000 0.000000 0.000000 0.000000 0.000000 0.000000 0.000000 0.000000 
0.316967 261.583 3.025789 -0.076240 41.917175 0.000000 4.000000 89.533685 -0.008134 10000.000000 1474.818750 -2.000000 -0.570425 -4.829575 -0.075187 10000.000000 1474.818750 6.779904 -0.015966 0.113247 -6104.829102 1897.082275 -0.529300 0.035573 0.935653 89.533670 2346.321045 0.040011 0.039440 0.001696 0.001575 0.000000 0.000000 0.000000 0.000000 0.000000 0.000000 0.000000 0.000000 0.000000 0.000000 0.000000 0.000000 0.000000 0.000000 0.000000 0.000000 0.000000 0.000000 0.000000 0.000000 0.000000 
0.333667 261.6 3.012251 -0.076136 41.917175 0.000000 4.000000 89.522709 -0.008325 10000.000000 1464.020721 -2.000000 -0.571401 -4.828599 -0.075187 10000.000000 1464.020721 6.829938 -0.015941 0.113119 -6104.828125 1897.195679 -0.529260 0.035790 0.929199 89.522694 2354.356201 0.039790 0.039223 0.001687 0.001571 0.000000 0.000000 0.000000 0.000000 0.000000 0.000000 0.000000 0.000000 0.000000 0.000000 0.000000 0.000000 0.000000 0.000000 0.000000 0.000000 0.000000 0.000000 0.000000 0.000000 0.000000 
0.350333 261.617 2.999302 -0.075989 41.917175 0.000000 4.000000 89.511733 -0.008517 10000.000000 1453.423476 -2.000000 -0.572865 -4.827135 -0.072360 10000.000000 1453.423476 6.879766 -0.015905 0.112948 -6104.826660 1897.309937 -0.529223 0.035896 0.922958 89.511718 2362.385986 0.039581 0.039019 0.001679 0.001567 0.000000 0.000000 0.000000 0.000000 0.000000 0.000000 0.000000 0.000000 0.000000 0.000000 0.000000 0.000000 0.000000 0.000000 0.000000 0.000000 0.000000 0.000000 0.000000 0.000000 0.000000 
0.367033 261.633 2.986971 -0.075426 41.917175 0.000000 4.000000 89.500763 -0.008708 10000.000000 1443.020046 -2.000000 -0.573841 -4.826159 -0.072360 10000.000000 1443.020046 6.929395 -0.015841 0.112745 -6104.825684 1897.425049 -0.529190 0.035890 0.916935 89.500749 2370.371338 0.039381 0.038827 0.001672 0.001563 0.000000 0.000000 0.000000 0.000000 0.000000 0.000000 0.000000 0.000000 0.000000 0.000000 0.000000 0.000000 0.000000 0.000000 0.000000 0.000000 0.000000 0.000000 0.000000 0.000000 0.000000 
0.3837 261.65 2.975137 -0.074490 41.917175 0.000000 4.000000 89.489808 -0.008900 10000.000000 1432.803745 -2.000000 -0.575305 -4.824695 -0.067963 10000.000000 1432.803745 6.978833 -0.015750 0.112520 -6104.824219 1897.540894 -0.529162 0.035762 0.911141 89.489793 2378.289063 0.039187 0.038643 0.001665 0.001559 0.000000 0.000000 0.000000 0.000000 0.000000 0.000000 0.000000 0.000000 0.000000 0.000000 0.000000 0.000000 0.000000 0.000000 0.000000 0.000000 0.000000 0.000000 0.000000 0.000000 0.000000 
0.4004 261.667 2.963641 -0.072588 41.917175 0.000000 4.000000 89.478900 -0.009090 10000.000000 1422.769404 -2.000000 -0.576281 -4.823719 -0.067963 10000.000000 1422.769404 7.028082 -0.015608 0.112282 -6104.823242 1897.657715 -0.529139 0.035489 0.905583 89.478885 2386.128662 0.038994 0.038466 0.001659 0.001556 0.000000 0.000000 0.000000 0.000000 0.000000 0.000000 0.000000 0.000000 0.000000 0.000000 0.000000 0.000000 0.000000 0.000000 0.000000 0.000000 0.000000 0.000000 0.000000 0.000000 0.000000 
0.417067 261.683 2.952336 -0.070328 41.917175 0.000000 4.000000 89.468047 -0.009279 10000.000000 1412.911662 -2.000000 -0.577746 -4.822254 -0.060583 10000.000000 1412.911662 7.077145 -0.015421 0.112041 -6104.821777 1897.775269 -0.529123 0.035050 0.900269 89.468032 2393.889648 0.038805 0.038294 0.001654 0.001552 0.000000 0.000000 0.000000 0.000000 0.000000 0.000000 0.000000 0.000000 0.000000 0.000000 0.000000 0.000000 0.000000 0.000000 0.000000 0.000000 0.000000 0.000000 0.000000 0.000000 0.000000 
0.433767 261.7 2.941125 -0.066513 41.917175 0.000000 4.000000 89.457303 -0.009467 10000.000000 1403.226290 -2.000000 -0.579210 -4.820790 -0.060583 10000.000000 1403.226290 7.126021 -0.015152 0.111804 -6104.820313 1897.893555 -0.529112 0.034396 0.895205 89.457288 2401.576416 0.038614 0.038130 0.001649 0.001547 0.000000 0.000000 0.000000 0.000000 0.000000 0.000000 0.000000 0.000000 0.000000 0.000000 0.000000 0.000000 0.000000 0.000000 0.000000 0.000000 0.000000 0.000000 0.000000 0.000000 0.000000 
0.450433 261.717 2.929948 -0.061892 41.917175 0.000000 4.000000 89.446703 -0.009652 10000.000000 1393.708828 -2.000000 -0.580674 -4.819326 -0.050532 10000.000000 1393.708828 7.174710 -0.014799 0.111580 -6104.818848 1898.012817 -0.529108 0.033483 0.890392 89.446688 2409.195801 0.038424 0.037970 0.001644 0.001543 0.000000 0.000000 0.000000 0.000000 0.000000 0.000000 0.000000 0.000000 0.000000 0.000000 0.000000 0.000000 0.000000 0.000000 0.000000 0.000000 0.000000 0.000000 0.000000 0.000000 0.000000 
0.467133 261.733 2.918783 -0.055319 41.917175 0.000000 4.000000 89.436307 -0.009833 10000.000000 1384.355057 -2.000000 -0.582138 -4.817862 -0.050532 10000.000000 1384.355057 7.223213 -0.014335 0.111375 -6104.817383 1898.132813 -0.529110 0.032228 0.885831 89.436292 2416.754395 0.038232 0.037820 0.001640 0.001538 0.000000 0.000000 0.000000 0.000000 0.000000 0.000000 0.000000 0.000000 0.000000 0.000000 0.000000 0.000000 0.000000 0.000000 0.000000 0.000000 0.000000 0.000000 0.000000 0.000000 0.000000 
0.4838 261.75 2.907633 -0.048182 41.917175 0.000000 4.000000 89.426198 -0.010010 10000.000000 1375.160899 -2.000000 -0.583603 -4.816397 -0.037499 10000.000000 1375.160899 7.271529 -0.013762 0.111195 -6104.815918 1898.253540 -0.529118 0.030583 0.881518 89.426183 2424.257324 0.038041 0.037675 0.001636 0.001533 0.000000 0.000000 0.000000 0.000000 0.000000 0.000000 0.000000 0.000000 0.000000 0.000000 0.000000 0.000000 0.000000 0.000000 0.000000 0.000000 0.000000 0.000000 0.000000 0.000000 0.000000 
0.5005 261.767 2.896506 -0.038994 41.917175 0.000000 4.000000 89.416445 -0.010180 10000.000000 1366.122233 -2.000000 -0.585067 -4.814933 -0.037499 10000.000000 1366.122233 7.319660 -0.013056 0.111047 -6104.814453 1898.375122 -0.529133 0.028458 0.877449 89.416430 2431.710938 0.037848 0.037539 0.001632 0.001528 0.000000 0.000000 0.000000 0.000000 0.000000 0.000000 0.000000 0.000000 0.000000 0.000000 0.000000 0.000000 0.000000 0.000000 0.000000 0.000000 0.000000 0.000000 0.000000 0.000000 0.000000 
0.517167 261.783 2.884592 -0.028775 41.917175 0.000000 4.000000 89.407149 -0.010342 10000.000000 1357.242542 -2.000000 -0.586531 -4.813469 -0.024151 10000.000000 1357.242542 7.367566 -0.012204 0.110932 -6104.812988 1898.497559 -0.529154 0.025800 0.873608 89.407134 2439.535889 0.037567 0.037327 0.001626 0.001520 0.000000 0.000000 0.000000 0.000000 0.000000 0.000000 0.000000 0.000000 0.000000 0.000000 0.000000 0.000000 0.000000 0.000000 0.000000 0.000000 0.000000 0.000000 0.000000 0.000000 0.000000 
0.533867 261.8 2.868469 -0.017723 41.917175 0.000000 4.000000 89.398420 -0.010495 10000.000000 1348.539452 -2.000000 -0.587995 -4.812005 -0.024151 10000.000000 1348.539452 7.415129 -0.011243 0.110846 -6104.811523 1898.620728 -0.529180 0.022548 0.869950 89.398405 2448.560303 0.037218 0.037052 0.001615 0.001508 0.000000 0.000000 0.000000 0.000000 0.000000 0.000000 0.000000 0.000000 0.000000 0.000000 0.000000 0.000000 0.000000 0.000000 0.000000 0.000000 0.000000 0.000000 0.000000 0.000000 0.000000 
0.550533 261.817 2.848961 -0.006473 41.917175 0.000000 4.000000 89.390333 -0.010636 10000.000000 1340.009595 -2.000000 -0.589460 -4.810540 -0.009390 10000.000000 1340.009595 7.462341 -0.010149 0.110801 -6104.810059 1898.744751 -0.529212 0.018733 0.866408 89.390318 2458.830322 0.036909 0.036835 0.001606 0.001496 0.000000 0.000000 0.000000 0.000000 0.000000 0.000000 0.000000 0.000000 0.000000 0.000000 0.000000 0.000000 0.000000 0.000000 0.000000 0.000000 0.000000 0.000000 0.000000 0.000000 0.000000 
0.567233 261.833 2.830824 0.005052 41.917175 0.000000 4.000000 89.383004 -0.010764 10000.000000 1331.631018 -2.000000 -0.590924 -4.809076 0.005057 10000.000000 1331.631018 7.509303 -0.008975 0.110804 -6104.808594 1898.869507 -0.529248 0.014375 0.862938 89.382989 2469.909668 0.036722 0.036744 0.001597 0.001489 0.000000 0.000000 0.000000 0.000000 0.000000 0.000000 0.000000 0.000000 0.000000 0.000000 0.000000 0.000000 0.000000 0.000000 0.000000 0.000000 0.000000 0.000000 0.000000 0.000000 0.000000 
0.5839 261.85 2.818375 0.016621 41.917175 0.000000 4.000000 89.376516 -0.010877 10000.000000 1323.376441 -2.000000 -0.592388 -4.807612 0.005057 10000.000000 1323.376441 7.556147 -0.007689 0.110865 -6104.807129 1898.995117 -0.529288 0.009560 0.859539 89.376501 2481.298584 0.036619 0.036740 0.001592 0.001483 0.000000 0.000000 0.000000 0.000000 0.000000 0.000000 0.000000 0.000000 0.000000 0.000000 0.000000 0.000000 0.000000 0.000000 0.000000 0.000000 0.000000 0.000000 0.000000 0.000000 0.000000 
0.6006 261.867 2.811530 0.027938 41.917175 0.000000 4.000000 89.370956 -0.010974 10000.000000 1315.230666 -2.000000 -0.593852 -4.806148 0.017306 10000.000000 1315.230666 7.602947 -0.006354 0.110991 -6104.805664 1899.121338 -0.529331 0.004352 0.856237 89.370941 2492.636230 0.036563 0.036781 0.001585 0.001479 0.000000 0.000000 0.000000 0.000000 0.000000 0.000000 0.000000 0.000000 0.000000 0.000000 0.000000 0.000000 0.000000 0.000000 0.000000 0.000000 0.000000 0.000000 0.000000 0.000000 0.000000 
0.617267 261.883 2.808502 0.039288 41.917175 0.000000 4.000000 89.366407 -0.011053 10000.000000 1307.185697 -2.000000 -0.595316 -4.804684 0.017306 10000.000000 1307.185697 7.649737 -0.004949 0.111184 -6104.804199 1899.248535 -0.529376 -0.001147 0.853066 89.366392 2503.750244 0.036523 0.036841 0.001578 0.001474 0.000000 0.000000 0.000000 0.000000 0.000000 0.000000 0.000000 0.000000 0.000000 0.000000 0.000000 0.000000 0.000000 0.000000 0.000000 0.000000 0.000000 0.000000 0.000000 0.000000 0.000000 
0.633967 261.9 2.807410 0.049304 41.917175 0.000000 4.000000 89.362910 -0.011114 10000.000000 1299.238387 -2.000000 -0.596781 -4.803219 0.028298 10000.000000 1299.238387 7.696525 -0.003542 0.111442 -6104.802734 1899.376343 -0.529422 -0.006822 0.850058 89.362895 2514.622803 0.036486 0.036896 0.001568 0.001470 0.000000 0.000000 0.000000 0.000000 0.000000 0.000000 0.000000 0.000000 0.000000 0.000000 0.000000 0.000000 0.000000 0.000000 0.000000 0.000000 0.000000 0.000000 0.000000 0.000000 0.000000 
0.650633 261.917 2.806804 0.059072 41.917175 0.000000 4.000000 89.360512 -0.011156 10000.000000 1291.388559 -2.000000 -0.598245 -4.801755 0.028298 10000.000000 1291.388559 7.743302 -0.002115 0.111760 -6104.801270 1899.505005 -0.529468 -0.012551 0.847236 89.360498 2525.317871 0.036438 0.036937 0.001556 0.001465 0.000000 0.000000 0.000000 0.000000 0.000000 0.000000 0.000000 0.000000 0.000000 0.000000 0.000000 0.000000 0.000000 0.000000 0.000000 0.000000 0.000000 0.000000 0.000000 0.000000 0.000000 
0.667333 261.933 2.805776 0.067907 41.917175 0.000000 4.000000 89.359201 -0.011179 10000.000000 1283.155337 -2.000000 -0.599709 -4.800291 0.036464 10000.000000 1283.155337 7.792976 -0.000636 0.112155 -6104.799805 1899.642578 -0.529516 -0.018551 0.844458 89.359186 2536.578369 0.036379 0.036963 0.001542 0.001461 0.000000 0.000000 0.000000 0.000000 0.000000 0.000000 0.000000 0.000000 0.000000 0.000000 0.000000 0.000000 0.000000 0.000000 0.000000 0.000000 0.000000 0.000000 0.000000 0.000000 0.000000 
0.684 261.95 2.804286 0.075056 41.917175 0.000000 4.000000 89.359099 -0.011181 10000.000000 1275.982648 -2.000000 -0.601173 -4.798827 0.036464 10000.000000 1275.982648 7.836772 0.000636 0.112547 -6104.798340 1899.764771 -0.529558 -0.023661 0.842196 89.359084 2546.482422 0.036322 0.036973 0.001529 0.001457 0.000000 0.000000 0.000000 0.000000 0.000000 0.000000 0.000000 0.000000 0.000000 0.000000 0.000000 0.000000 0.000000 0.000000 0.000000 0.000000 0.000000 0.000000 0.000000 0.000000 0.000000 
0.7007 261.967 2.802192 0.080979 41.917175 0.000000 4.000000 89.360062 -0.011164 10000.000000 1268.425770 -2.000000 -0.602638 -4.797362 0.043530 10000.000000 1268.425770 7.883448 0.001921 0.113001 -6104.796875 1899.895752 -0.529602 -0.028792 0.839977 89.360047 2557.043457 0.036265 0.036974 0.001515 0.001454 0.000000 0.000000 0.000000 0.000000 0.000000 0.000000 0.000000 0.000000 0.000000 0.000000 0.000000 0.000000 0.000000 0.000000 0.000000 0.000000 0.000000 0.000000 0.000000 0.000000 0.000000 
0.717367 261.983 2.799796 0.086365 41.917175 0.000000 4.000000 89.362104 -0.011133 10000.000000 10000.000000 2.000000 -0.604590 4.795410 0.043530 10000.000000 10000.000000 7.930081 0.003140 0.113487 -6104.795410 1900.027588 -0.529644 -0.033502 0.837950 89.362089 2567.603760 0.036210 0.036969 0.001503 0.001454 0.000000 0.000000 0.000000 0.000000 0.000000 0.000000 0.000000 0.000000 0.000000 0.000000 0.000000 0.000000 0.000000 0.000000 0.000000 0.000000 0.000000 0.000000 0.000000 0.000000 0.000000 
0.734067 262 2.797321 0.090680 41.917175 0.000000 4.000000 89.365177 -0.011080 10000.000000 1253.597031 2.000000 -0.606055 4.793945 0.048869 10000.000000 1253.597031 7.976672 0.004278 0.114000 -6104.793945 1900.160156 -0.529685 -0.037706 0.836106 89.365163 2578.153076 0.036162 0.036959 0.001493 0.001455 0.000000 0.000000 0.000000 0.000000 0.000000 0.000000 0.000000 0.000000 0.000000 0.000000 0.000000 0.000000 0.000000 0.000000 0.000000 0.000000 0.000000 0.000000 0.000000 0.000000 0.000000 
0.750733 262.017 2.794895 0.094494 41.917175 0.000000 4.000000 89.369228 -0.011009 10000.000000 1246.321182 2.000000 -0.607520 4.792480 0.048869 10000.000000 1246.321182 8.023224 0.005331 0.114536 -6104.792480 1900.293457 -0.529724 -0.041361 0.834435 89.369213 2588.677979 0.036119 0.036944 0.001485 0.001458 0.000000 0.000000 0.000000 0.000000 0.000000 0.000000 0.000000 0.000000 0.000000 0.000000 0.000000 0.000000 0.000000 0.000000 0.000000 0.000000 0.000000 0.000000 0.000000 0.000000 0.000000 
0.767433 262.033 2.792572 0.097444 41.917175 0.000000 4.000000 89.374180 -0.010923 10000.000000 1239.134722 2.000000 -0.608496 4.791504 0.053266 10000.000000 1239.134722 8.069738 0.006299 0.115092 -6104.791504 1900.427612 -0.529762 -0.044430 0.832928 89.374165 2599.167725 0.036082 0.036926 0.001480 0.001464 0.000000 0.000000 0.000000 0.000000 0.000000 0.000000 0.000000 0.000000 0.000000 0.000000 0.000000 0.000000 0.000000 0.000000 0.000000 0.000000 0.000000 0.000000 0.000000 0.000000 0.000000 
0.7841 262.05 2.790336 0.100084 41.917175 0.000000 4.000000 89.379965 -0.010822 10000.000000 1232.036309 2.000000 -0.609961 4.790039 0.057035 10000.000000 1232.036309 8.116217 0.007183 0.115664 -6104.790039 1900.562500 -0.529799 -0.046920 0.831573 89.379950 2609.617188 0.036050 0.036904 0.001478 0.001472 0.000000 0.000000 0.000000 0.000000 0.000000 0.000000 0.000000 0.000000 0.000000 0.000000 0.000000 0.000000 0.000000 0.000000 0.000000 0.000000 0.000000 0.000000 0.000000 0.000000 0.000000 
0.8008 262.067 2.788155 0.102548 41.917175 0.000000 4.000000 89.386515 -0.010707 10000.000000 1225.024055 2.000000 -0.611426 4.788574 0.057035 10000.000000 1225.024055 8.162659 0.008001 0.116251 -6104.788574 1900.698120 -0.529834 -0.048857 0.830360 89.386500 2620.025635 0.036021 0.036879 0.001479 0.001481 0.000000 0.000000 0.000000 0.000000 0.000000 0.000000 0.000000 0.000000 0.000000 0.000000 0.000000 0.000000 0.000000 0.000000 0.000000 0.000000 0.000000 0.000000 0.000000 0.000000 0.000000 
0.817467 262.083 2.785993 0.104723 41.917175 0.000000 4.000000 89.393755 -0.010581 10000.000000 1218.096406 2.000000 -0.612891 4.787109 0.060804 10000.000000 1218.096406 8.209065 0.008745 0.116852 -6104.787109 1900.834595 -0.529868 -0.050291 0.829276 89.393740 2630.394775 0.035994 0.036850 0.001481 0.001491 0.000000 0.000000 0.000000 0.000000 0.000000 0.000000 0.000000 0.000000 0.000000 0.000000 0.000000 0.000000 0.000000 0.000000 0.000000 0.000000 0.000000 0.000000 0.000000 0.000000 0.000000 
0.834167 262.1 2.783813 0.106965 41.917175 0.000000 4.000000 89.401603 -0.010444 10000.000000 1211.252267 2.000000 -0.613867 4.786133 0.060804 10000.000000 1211.252267 8.255434 0.009440 0.117470 -6104.786133 1900.971802 -0.529900 -0.051291 0.828308 89.401588 2640.727539 0.035971 0.036821 0.001486 0.001502 0.000000 0.000000 0.000000 0.000000 0.000000 0.000000 0.000000 0.000000 0.000000 0.000000 0.000000 0.000000 0.000000 0.000000 0.000000 0.000000 0.000000 0.000000 0.000000 0.000000 0.000000 
0.850833 262.117 2.781611 0.109136 41.917175 0.000000 4.000000 89.409997 -0.010297 10000.000000 1204.489589 2.000000 -0.615332 4.784668 0.064258 10000.000000 1204.489589 8.301767 0.010083 0.118104 -6104.784668 1901.109741 -0.529931 -0.051948 0.827441 89.409982 2651.026611 0.035952 0.036791 0.001491 0.001513 0.000000 0.000000 0.000000 0.000000 0.000000 0.000000 0.000000 0.000000 0.000000 0.000000 0.000000 0.000000 0.000000 0.000000 0.000000 0.000000 0.000000 0.000000 0.000000 0.000000 0.000000 
0.867533 262.133 2.779415 0.111558 41.917175 0.000000 4.000000 89.418890 -0.010142 10000.000000 1197.807480 2.000000 -0.616309 4.783691 0.064258 10000.000000 1197.807480 8.348063 0.010694 0.118752 -6104.783691 1901.248535 -0.529960 -0.052357 0.826658 89.418875 2661.294189 0.035932 0.036761 0.001498 0.001523 0.000000 0.000000 0.000000 0.000000 0.000000 0.000000 0.000000 0.000000 0.000000 0.000000 0.000000 0.000000 0.000000 0.000000 0.000000 0.000000 0.000000 0.000000 0.000000 0.000000 0.000000 
0.8842 262.15 2.777234 0.113732 41.917175 0.000000 4.000000 89.428213 -0.009980 10000.000000 1191.204109 2.000000 -0.617773 4.782227 0.067870 10000.000000 1191.204109 8.394322 0.011267 0.119411 -6104.782227 1901.388062 -0.529988 -0.052604 0.825946 89.428198 2671.530762 0.035912 0.036732 0.001504 0.001533 0.000000 0.000000 0.000000 0.000000 0.000000 0.000000 0.000000 0.000000 0.000000 0.000000 0.000000 0.000000 0.000000 0.000000 0.000000 0.000000 0.000000 0.000000 0.000000 0.000000 0.000000 
0.9009 262.167 2.774931 0.116321 41.882996 0.000000 4.000000 89.438547 -0.009799 10000.000000 1184.272822 2.000000 -0.619238 4.780762 0.067870 10000.000000 1184.272822 8.443435 0.011854 0.120122 -6104.780762 1901.537109 -0.530015 -0.052781 0.825250 89.438532 2682.356689 0.035888 0.036703 0.001511 0.001542 0.000000 0.000000 0.000000 0.000000 0.000000 0.000000 0.000000 0.000000 0.000000 0.000000 0.000000 0.000000 0.000000 0.000000 0.000000 0.000000 0.000000 0.000000 0.000000 0.000000 0.000000 
0.917567 262.183 2.772906 0.118408 41.882996 0.000000 4.000000 89.448000 -0.009634 10000.000000 1178.228367 2.000000 -0.620215 4.779785 0.071482 10000.000000 1178.228367 8.486734 0.012348 0.120755 -6104.779785 1901.669434 -0.530038 -0.052924 0.824675 89.447985 2691.863770 0.035864 0.036677 0.001516 0.001549 0.000000 0.000000 0.000000 0.000000 0.000000 0.000000 0.000000 0.000000 0.000000 0.000000 0.000000 0.000000 0.000000 0.000000 0.000000 0.000000 0.000000 0.000000 0.000000 0.000000 0.000000 
0.934267 262.2 2.770783 0.120918 41.882996 0.000000 4.000000 89.458403 -0.009453 10000.000000 1171.852806 2.000000 -0.621191 4.778809 0.071482 10000.000000 1171.852806 8.532889 0.012863 0.121434 -6104.778809 1901.811279 -0.530061 -0.053120 0.824090 89.458388 2701.983154 0.035845 0.036661 0.001522 0.001555 0.000000 0.000000 0.000000 0.000000 0.000000 0.000000 0.000000 0.000000 0.000000 0.000000 0.000000 0.000000 0.000000 0.000000 0.000000 0.000000 0.000000 0.000000 0.000000 0.000000 0.000000 
0.950933 262.217 2.769139 0.123218 41.882996 0.000000 4.000000 89.469126 -0.009265 10000.000000 1165.548592 2.000000 -0.622168 4.777832 0.074623 10000.000000 1165.548592 8.579025 0.013359 0.122116 -6104.777832 1901.953857 -0.530082 -0.053396 0.823530 89.469111 2712.085693 0.035833 0.036654 0.001527 0.001560 0.000000 0.000000 0.000000 0.000000 0.000000 0.000000 0.000000 0.000000 0.000000 0.000000 0.000000 0.000000 0.000000 0.000000 0.000000 0.000000 0.000000 0.000000 0.000000 0.000000 0.000000 
0.967633 262.233 2.767912 0.125562 41.882996 0.000000 4.000000 89.480143 -0.009073 10000.000000 1159.314023 2.000000 -0.623633 4.776367 0.077135 10000.000000 1159.314023 8.625145 0.013839 0.122799 -6104.776367 1902.097168 -0.530101 -0.053779 0.822989 89.480128 2722.174072 0.035818 0.036648 0.001531 0.001564 0.000000 0.000000 0.000000 0.000000 0.000000 0.000000 0.000000 0.000000 0.000000 0.000000 0.000000 0.000000 0.000000 0.000000 0.000000 0.000000 0.000000 0.000000 0.000000 0.000000 0.000000 
0.9843 262.25 2.766863 0.127733 41.882996 0.000000 4.000000 89.491461 -0.008876 10000.000000 1153.147827 2.000000 -0.624609 4.775391 0.077135 10000.000000 1153.147827 8.671249 0.014301 0.123481 -6104.775391 1902.241333 -0.530119 -0.054277 0.822465 89.491446 2732.246094 0.035803 0.036644 0.001535 0.001567 0.000000 0.000000 0.000000 0.000000 0.000000 0.000000 0.000000 0.000000 0.000000 0.000000 0.000000 0.000000 0.000000 0.000000 0.000000 0.000000 0.000000 0.000000 0.000000 0.000000 0.000000 
1.001 262.267 2.765835 0.129684 41.882996 0.000000 4.000000 89.503810 -0.008660 10000.000000 1146.670195 2.000000 -0.625586 4.774414 0.079176 10000.000000 1146.670195 8.720218 0.014757 0.124204 -6104.774414 1902.395386 -0.530136 -0.054925 0.821923 89.503795 2742.924316 0.035786 0.036639 0.001538 0.001570 0.000000 0.000000 0.000000 0.000000 0.000000 0.000000 0.000000 0.000000 0.000000 0.000000 0.000000 0.000000 0.000000 0.000000 0.000000 0.000000 0.000000 0.000000 0.000000 0.000000 0.000000 
1.01767 262.283 2.764920 0.131124 41.882996 0.000000 4.000000 89.515728 -0.008452 10000.000000 1140.641635 2.000000 -0.626563 4.773438 0.079176 10000.000000 1140.641635 8.766291 0.015155 0.124882 -6104.773438 1902.541138 -0.530151 -0.055621 0.821425 89.515714 2752.948242 0.035771 0.036636 0.001542 0.001572 0.000000 0.000000 0.000000 0.000000 0.000000 0.000000 0.000000 0.000000 0.000000 0.000000 0.000000 0.000000 0.000000 0.000000 0.000000 0.000000 0.000000 0.000000 0.000000 0.000000 0.000000 
1.03437 262.3 2.764086 0.132259 41.882996 0.000000 4.000000 89.527155 -0.008253 10000.000000 1135.048784 2.000000 -0.627539 4.772461 0.079176 10000.000000 1135.048784 8.809471 0.015493 0.125516 -6104.772461 1902.678467 -0.530163 -0.056329 0.820966 89.527140 2762.320557 0.035759 0.036632 0.001545 0.001575 0.000000 0.000000 0.000000 0.000000 0.000000 0.000000 0.000000 0.000000 0.000000 0.000000 0.000000 0.000000 0.000000 0.000000 0.000000 0.000000 0.000000 0.000000 0.000000 0.000000 0.000000 
1.05103 262.317 2.762851 0.132894 41.848816 0.000000 4.000000 89.539607 -0.008035 10000.000000 1129.147810 2.000000 -0.628516 4.771484 0.079176 10000.000000 1129.147810 8.855495 0.015805 0.126188 -6104.771484 1902.825684 -0.530174 -0.057111 0.820480 89.539592 2772.535645 0.035685 0.036563 0.001547 0.001577 0.000000 0.000000 0.000000 0.000000 0.000000 0.000000 0.000000 0.000000 0.000000 0.000000 0.000000 0.000000 0.000000 0.000000 0.000000 0.000000 0.000000 0.000000 0.000000 0.000000 0.000000 
1.06773 262.333 2.756928 0.132915 41.848816 0.000000 4.000000 89.553124 -0.007799 10000.000000 1122.969110 2.000000 -0.629492 4.770508 0.077606 10000.000000 1122.969110 8.904205 0.016072 0.126881 -6104.770508 1902.982910 -0.530185 -0.057921 0.819928 89.553109 2784.678223 0.035485 0.036362 0.001545 0.001575 0.000000 0.000000 0.000000 0.000000 0.000000 0.000000 0.000000 0.000000 0.000000 0.000000 0.000000 0.000000 0.000000 0.000000 0.000000 0.000000 0.000000 0.000000 0.000000 0.000000 0.000000 
1.0844 262.35 2.747354 0.132118 41.848816 0.000000 4.000000 89.565268 -0.007588 10000.000000 1117.598075 2.000000 -0.629980 4.770020 0.077606 10000.000000 1117.598075 8.946986 0.016240 0.127467 -6104.770020 1903.122437 -0.530193 -0.058565 0.819354 89.565253 2796.385742 0.035353 0.036224 0.001544 0.001575 0.000000 0.000000 0.000000 0.000000 0.000000 0.000000 0.000000 0.000000 0.000000 0.000000 0.000000 0.000000 0.000000 0.000000 0.000000 0.000000 0.000000 0.000000 0.000000 0.000000 0.000000 
1.1011 262.367 2.738094 0.130805 41.882996 0.000000 4.000000 89.578416 -0.007358 10000.000000 1111.937890 2.000000 -0.630957 4.769043 0.075094 10000.000000 1111.937890 8.992518 0.016354 0.128067 -6104.769043 1903.271851 -0.530201 -0.059130 0.818627 89.578401 2809.158936 0.035309 0.036173 0.001546 0.001579 0.000000 0.000000 0.000000 0.000000 0.000000 0.000000 0.000000 0.000000 0.000000 0.000000 0.000000 0.000000 0.000000 0.000000 0.000000 0.000000 0.000000 0.000000 0.000000 0.000000 0.000000 
1.11777 262.383 2.733183 0.128633 41.882996 0.000000 4.000000 89.592561 -0.007111 10000.000000 1105.987828 2.000000 -0.631934 4.768066 0.075094 10000.000000 1105.987828 9.040887 0.016386 0.128685 -6104.768066 1903.431519 -0.530209 -0.059540 0.817737 89.592546 2822.444824 0.035325 0.036177 0.001552 0.001586 0.000000 0.000000 0.000000 0.000000 0.000000 0.000000 0.000000 0.000000 0.000000 0.000000 0.000000 0.000000 0.000000 0.000000 0.000000 0.000000 0.000000 0.000000 0.000000 0.000000 0.000000 
1.13447 262.4 2.732280 0.126494 41.882996 0.000000 4.000000 89.605163 -0.006891 10000.000000 1100.788143 2.000000 -0.632422 4.767578 0.072424 10000.000000 1100.788143 9.083584 0.016350 0.129222 -6104.767578 1903.573242 -0.530214 -0.059702 0.816879 89.605148 2833.855469 0.035338 0.036179 0.001558 0.001594 0.000000 0.000000 0.000000 0.000000 0.000000 0.000000 0.000000 0.000000 0.000000 0.000000 0.000000 0.000000 0.000000 0.000000 0.000000 0.000000 0.000000 0.000000 0.000000 0.000000 0.000000 
1.15113 262.417 2.732291 0.123841 41.882996 0.000000 4.000000 89.618673 -0.006655 10000.000000 1095.295501 2.000000 -0.633398 4.766602 0.072424 10000.000000 1095.295501 9.129128 0.016245 0.129788 -6104.766602 1903.724976 -0.530218 -0.059632 0.815911 89.618658 2845.879639 0.035331 0.036158 0.001564 0.001602 0.000000 0.000000 0.000000 0.000000 0.000000 0.000000 0.000000 0.000000 0.000000 0.000000 0.000000 0.000000 0.000000 0.000000 0.000000 0.000000 0.000000 0.000000 0.000000 0.000000 0.000000 
1.16783 262.433 2.731524 0.121275 41.848816 0.000000 4.000000 89.633057 -0.006404 10000.000000 1089.522998 2.000000 -0.634375 4.765625 0.069912 10000.000000 1089.522998 9.177487 0.016077 0.130379 -6104.765625 1903.887085 -0.530222 -0.059268 0.814836 89.633043 2858.641357 0.035303 0.036115 0.001569 0.001610 0.000000 0.000000 0.000000 0.000000 0.000000 0.000000 0.000000 0.000000 0.000000 0.000000 0.000000 0.000000 0.000000 0.000000 0.000000 0.000000 0.000000 0.000000 0.000000 0.000000 0.000000 
1.1845 262.45 2.729917 0.119071 41.848816 0.000000 4.000000 89.645727 -0.006183 10000.000000 1084.484474 2.000000 -0.634863 4.765137 0.069912 10000.000000 1084.484474 9.220119 0.015888 0.130891 -6104.765137 1904.030884 -0.530224 -0.058701 0.813853 89.645713 2869.939209 0.035275 0.036070 0.001573 0.001616 0.000000 0.000000 0.000000 0.000000 0.000000 0.000000 0.000000 0.000000 0.000000 0.000000 0.000000 0.000000 0.000000 0.000000 0.000000 0.000000 0.000000 0.000000 0.000000 0.000000 0.000000 
1.2012 262.467 2.727545 0.117079 41.848816 0.000000 4.000000 89.660030 -0.005934 10000.000000 1078.835391 2.000000 -0.635352 4.764648 0.068184 10000.000000 1078.835391 9.268393 0.015647 0.131458 -6104.764648 1904.194580 -0.530225 -0.057812 0.812704 89.660015 2882.781250 0.035248 0.036022 0.001577 0.001622 0.000000 0.000000 0.000000 0.000000 0.000000 0.000000 0.000000 0.000000 0.000000 0.000000 0.000000 0.000000 0.000000 0.000000 0.000000 0.000000 0.000000 0.000000 0.000000 0.000000 0.000000 
1.21787 262.483 2.725466 0.115735 41.848816 0.000000 4.000000 89.672556 -0.005715 10000.000000 1073.903257 2.000000 -0.636328 4.763672 0.068184 10000.000000 1073.903257 9.310954 0.015424 0.131947 -6104.763672 1904.339722 -0.530225 -0.056854 0.811665 89.672542 2894.103027 0.035230 0.035986 0.001581 0.001626 0.000000 0.000000 0.000000 0.000000 0.000000 0.000000 0.000000 0.000000 0.000000 0.000000 0.000000 0.000000 0.000000 0.000000 0.000000 0.000000 0.000000 0.000000 0.000000 0.000000 0.000000 
1.23457 262.5 2.723498 0.114874 41.848816 0.000000 4.000000 89.685800 -0.005484 10000.000000 1068.695039 2.000000 -0.636816 4.763184 0.066928 10000.000000 1068.695039 9.356326 0.015188 0.132457 -6104.763184 1904.495239 -0.530225 -0.055715 0.810538 89.685785 2906.143311 0.035213 0.035951 0.001583 0.001630 0.000000 0.000000 0.000000 0.000000 0.000000 0.000000 0.000000 0.000000 0.000000 0.000000 0.000000 0.000000 0.000000 0.000000 0.000000 0.000000 0.000000 0.000000 0.000000 0.000000 0.000000 
1.25123 262.517 2.721742 0.114420 41.780457 0.000000 4.000000 89.698894 -0.005255 10000.000000 1063.540116 2.000000 -0.637305 4.762695 0.066143 10000.000000 1063.540116 9.401670 0.014964 0.132956 -6104.762695 1904.651611 -0.530223 -0.054522 0.809398 89.698879 2918.111816 0.035195 0.035916 0.001584 0.001631 0.000000 0.000000 0.000000 0.000000 0.000000 0.000000 0.000000 0.000000 0.000000 0.000000 0.000000 0.000000 0.000000 0.000000 0.000000 0.000000 0.000000 0.000000 0.000000 0.000000 0.000000 
1.26793 262.533 2.720004 0.114327 41.780457 0.000000 4.000000 89.711844 -0.005029 10000.000000 1058.438317 2.000000 -0.637793 4.762207 0.066143 10000.000000 1058.438317 9.446984 0.014757 0.133443 -6104.762207 1904.808716 -0.530221 -0.053347 0.808253 89.711829 2930.028564 0.035173 0.035879 0.001584 0.001631 0.000000 0.000000 0.000000 0.000000 0.000000 0.000000 0.000000 0.000000 0.000000 0.000000 0.000000 0.000000 0.000000 0.000000 0.000000 0.000000 0.000000 0.000000 0.000000 0.000000 0.000000 
1.2846 262.55 2.718087 0.114512 41.780457 0.000000 4.000000 89.724630 -0.004806 10000.000000 1053.389040 2.000000 -0.638281 4.761719 0.065829 10000.000000 1053.389040 9.492264 0.014572 0.133919 -6104.761719 1904.966553 -0.530218 -0.052254 0.807107 89.724615 2941.958252 0.035147 0.035840 0.001582 0.001629 0.000000 0.000000 0.000000 0.000000 0.000000 0.000000 0.000000 0.000000 0.000000 0.000000 0.000000 0.000000 0.000000 0.000000 0.000000 0.000000 0.000000 0.000000 0.000000 0.000000 0.000000 
1.3013 262.567 2.715921 0.114955 41.746277 0.000000 4.000000 89.738044 -0.004572 10000.000000 1048.080887 2.000000 -0.638770 4.761230 0.065829 10000.000000 1048.080887 9.540335 0.014403 0.134413 -6104.761230 1905.135132 -0.530214 -0.051245 0.805892 89.738029 2954.614258 0.035119 0.035804 0.001579 0.001625 0.000000 0.000000 0.000000 0.000000 0.000000 0.000000 0.000000 0.000000 0.000000 0.000000 0.000000 0.000000 0.000000 0.000000 0.000000 0.000000 0.000000 0.000000 0.000000 0.000000 0.000000 
1.31797 262.583 2.713904 0.115519 41.746277 0.000000 4.000000 89.750530 -0.004354 10000.000000 1043.137498 2.000000 -0.639258 4.760742 0.065829 10000.000000 1043.137498 9.585544 0.014268 0.134868 -6104.760742 1905.294434 -0.530211 -0.050485 0.804758 89.750515 2966.501465 0.035093 0.035772 0.001576 0.001621 0.000000 0.000000 0.000000 0.000000 0.000000 0.000000 0.000000 0.000000 0.000000 0.000000 0.000000 0.000000 0.000000 0.000000 0.000000 0.000000 0.000000 0.000000 0.000000 0.000000 0.000000 
1.33467 262.6 2.712050 0.116137 41.746277 0.000000 4.000000 89.762107 -0.004152 10000.000000 1038.548400 2.000000 -0.639746 4.760254 0.065829 10000.000000 1038.548400 9.627897 0.014164 0.135285 -6104.760254 1905.444580 -0.530208 -0.049964 0.803705 89.762092 2977.635498 0.035068 0.035744 0.001571 0.001616 0.000000 0.000000 0.000000 0.000000 0.000000 0.000000 0.000000 0.000000 0.000000 0.000000 0.000000 0.000000 0.000000 0.000000 0.000000 0.000000 0.000000 0.000000 0.000000 0.000000 0.000000 
1.35133 262.617 2.710127 0.116810 41.746277 0.000000 4.000000 89.774360 -0.003938 10000.000000 1033.700940 2.000000 -0.640234 4.759766 0.065515 10000.000000 1033.700940 9.673045 0.014070 0.135724 -6104.759766 1905.605469 -0.530204 -0.049627 0.802599 89.774345 2989.492920 0.035041 0.035718 0.001567 0.001610 0.000000 0.000000 0.000000 0.000000 0.000000 0.000000 0.000000 0.000000 0.000000 0.000000 0.000000 0.000000 0.000000 0.000000 0.000000 0.000000 0.000000 0.000000 0.000000 0.000000 0.000000 
1.36803 262.633 2.708153 0.117363 41.712097 0.000000 4.000000 89.787276 -0.003713 10000.000000 1028.603301 2.000000 -0.640723 4.759277 0.065515 10000.000000 1028.603301 9.720982 0.013982 0.136182 -6104.759277 1905.777222 -0.530201 -0.049510 0.801448 89.787261 3002.043945 0.035012 0.035692 0.001562 0.001603 0.000000 0.000000 0.000000 0.000000 0.000000 0.000000 0.000000 0.000000 0.000000 0.000000 0.000000 0.000000 0.000000 0.000000 0.000000 0.000000 0.000000 0.000000 0.000000 0.000000 0.000000 
1.3847 262.65 2.706425 0.117725 41.712097 0.000000 4.000000 89.798608 -0.003515 10000.000000 1024.150222 2.000000 -0.641211 4.758789 0.065044 10000.000000 1024.150222 9.763248 0.013911 0.136581 -6104.758789 1905.929443 -0.530198 -0.049597 0.800456 89.798593 3013.088379 0.034984 0.035668 0.001558 0.001598 0.000000 0.000000 0.000000 0.000000 0.000000 0.000000 0.000000 0.000000 0.000000 0.000000 0.000000 0.000000 0.000000 0.000000 0.000000 0.000000 0.000000 0.000000 0.000000 0.000000 0.000000 
1.4014 262.667 2.704402 0.117909 41.712097 0.000000 4.000000 89.811394 -0.003292 10000.000000 1019.153250 2.000000 -0.641211 4.758789 0.065044 10000.000000 1019.153250 9.811117 0.013829 0.137029 -6104.758789 1906.102783 -0.530195 -0.049874 0.799363 89.811379 3025.599121 0.034951 0.035642 0.001554 0.001593 0.000000 0.000000 0.000000 0.000000 0.000000 0.000000 0.000000 0.000000 0.000000 0.000000 0.000000 0.000000 0.000000 0.000000 0.000000 0.000000 0.000000 0.000000 0.000000 0.000000 0.000000 
1.41807 262.683 2.702464 0.117902 41.677910 0.000000 4.000000 89.823394 -0.003082 10000.000000 1014.498292 2.000000 -0.641699 4.758301 0.064101 10000.000000 1014.498292 9.856135 0.013744 0.137447 -6104.758301 1906.266602 -0.530194 -0.050269 0.798367 89.823379 3037.340576 0.034921 0.035618 0.001551 0.001589 0.000000 0.000000 0.000000 0.000000 0.000000 0.000000 0.000000 0.000000 0.000000 0.000000 0.000000 0.000000 0.000000 0.000000 0.000000 0.000000 0.000000 0.000000 0.000000 0.000000 0.000000 
1.43477 262.7 2.700647 0.117651 41.677910 0.000000 4.000000 89.834616 -0.002886 10000.000000 1010.175492 2.000000 -0.641699 4.758301 0.064101 10000.000000 1010.175492 9.898312 0.013654 0.137838 -6104.758301 1906.421021 -0.530193 -0.050713 0.797464 89.834601 3048.324951 0.034893 0.035595 0.001548 0.001586 0.000000 0.000000 0.000000 0.000000 0.000000 0.000000 0.000000 0.000000 0.000000 0.000000 0.000000 0.000000 0.000000 0.000000 0.000000 0.000000 0.000000 0.000000 0.000000 0.000000 0.000000 
1.45143 262.717 2.698689 0.117300 41.677910 0.000000 4.000000 89.846569 -0.002678 10000.000000 1005.608366 2.000000 -0.642188 4.757812 0.063159 10000.000000 1005.608366 9.943267 0.013544 0.138255 -6104.757813 1906.586426 -0.530192 -0.051223 0.796536 89.846554 3060.035645 0.034863 0.035571 0.001546 0.001583 0.000000 0.000000 0.000000 0.000000 0.000000 0.000000 0.000000 0.000000 0.000000 0.000000 0.000000 0.000000 0.000000 0.000000 0.000000 0.000000 0.000000 0.000000 0.000000 0.000000 0.000000 
1.46813 262.733 2.696617 0.116850 41.609550 0.000000 4.000000 89.859260 -0.002456 10000.000000 1000.804403 2.000000 -0.642187 4.757813 0.062217 10000.000000 1000.804403 9.990996 0.013413 0.138698 -6104.757813 1906.762939 -0.530193 -0.051756 0.795591 89.859245 3072.420410 0.034833 0.035546 0.001545 0.001582 0.000000 0.000000 0.000000 0.000000 0.000000 0.000000 0.000000 0.000000 0.000000 0.000000 0.000000 0.000000 0.000000 0.000000 0.000000 0.000000 0.000000 0.000000 0.000000 0.000000 0.000000 
1.4848 262.75 2.694784 0.116472 41.609550 0.000000 4.000000 89.870441 -0.002261 10000.000000 996.606651 2.000000 -0.642676 4.757324 0.062217 10000.000000 996.606651 10.033080 0.013284 0.139091 -6104.757324 1906.919312 -0.530194 -0.052189 0.794793 89.870426 3083.314941 0.034805 0.035521 0.001545 0.001581 0.000000 0.000000 0.000000 0.000000 0.000000 0.000000 0.000000 0.000000 0.000000 0.000000 0.000000 0.000000 0.000000 0.000000 0.000000 0.000000 0.000000 0.000000 0.000000 0.000000 0.000000 
1.5015 262.767 2.692610 0.116163 41.609550 0.000000 4.000000 89.883090 -0.002040 10000.000000 991.895425 2.000000 -0.642676 4.757324 0.061275 10000.000000 991.895425 10.080736 0.013130 0.139540 -6104.757324 1907.097412 -0.530196 -0.052608 0.793929 89.883075 3095.674561 0.034774 0.035493 0.001545 0.001581 0.000000 0.000000 0.000000 0.000000 0.000000 0.000000 0.000000 0.000000 0.000000 0.000000 0.000000 0.000000 0.000000 0.000000 0.000000 0.000000 0.000000 0.000000 0.000000 0.000000 0.000000 
1.51817 262.783 2.690535 0.115978 41.677910 0.000000 4.000000 89.894982 -0.001833 10000.000000 987.505221 2.000000 -0.642676 4.757324 0.061275 10000.000000 987.505221 10.125554 0.012975 0.139967 -6104.757324 1907.265869 -0.530200 -0.052920 0.793154 89.894967 3107.348877 0.034748 0.035468 0.001546 0.001582 0.000000 0.000000 0.000000 0.000000 0.000000 0.000000 0.000000 0.000000 0.000000 0.000000 0.000000 0.000000 0.000000 0.000000 0.000000 0.000000 0.000000 0.000000 0.000000 0.000000 0.000000 
1.53487 262.8 2.688607 0.115955 41.677910 0.000000 4.000000 89.906839 -0.001626 10000.000000 983.156566 2.000000 -0.642676 4.757324 0.060804 10000.000000 983.156566 10.170343 0.012820 0.140399 -6104.757324 1907.435059 -0.530204 -0.053146 0.792418 89.906824 3119.015137 0.034728 0.035449 0.001547 0.001583 0.000000 0.000000 0.000000 0.000000 0.000000 0.000000 0.000000 0.000000 0.000000 0.000000 0.000000 0.000000 0.000000 0.000000 0.000000 0.000000 0.000000 0.000000 0.000000 0.000000 0.000000 
1.55153 262.817 2.687042 0.116122 41.677910 0.000000 4.000000 89.917931 -0.001432 10000.000000 979.116497 2.000000 -0.642676 4.757324 0.060804 10000.000000 979.116497 10.212311 0.012676 0.140810 -6104.757324 1907.594238 -0.530209 -0.053286 0.791763 89.917916 3129.894287 0.034712 0.035434 0.001549 0.001585 0.000000 0.000000 0.000000 0.000000 0.000000 0.000000 0.000000 0.000000 0.000000 0.000000 0.000000 0.000000 0.000000 0.000000 0.000000 0.000000 0.000000 0.000000 0.000000 0.000000 0.000000 
1.56823 262.833 2.685422 0.116600 41.677910 0.000000 4.000000 89.930471 -0.001214 10000.000000 974.580217 2.000000 -0.642676 4.757324 0.060647 10000.000000 974.580217 10.259848 0.012522 0.141284 -6104.757324 1907.775513 -0.530215 -0.053377 0.791064 89.930456 3142.170410 0.034692 0.035414 0.001550 0.001586 0.000000 0.000000 0.000000 0.000000 0.000000 0.000000 0.000000 0.000000 0.000000 0.000000 0.000000 0.000000 0.000000 0.000000 0.000000 0.000000 0.000000 0.000000 0.000000 0.000000 0.000000 
1.5849 262.85 2.683953 0.117259 41.677910 0.000000 4.000000 89.941495 -0.001021 10000.000000 970.614856 2.000000 -0.642676 4.757324 0.060647 10000.000000 970.614856 10.301765 0.012397 0.141710 -6104.757324 1907.936157 -0.530221 -0.053418 0.790485 89.941480 3152.974854 0.034672 0.035395 0.001552 0.001588 0.000000 0.000000 0.000000 0.000000 0.000000 0.000000 0.000000 0.000000 0.000000 0.000000 0.000000 0.000000 0.000000 0.000000 0.000000 0.000000 0.000000 0.000000 0.000000 0.000000 0.000000 
1.6016 262.867 2.682151 0.118217 41.677910 0.000000 4.000000 89.953960 -0.000804 10000.000000 966.162618 2.000000 -0.642676 4.757324 0.060490 10000.000000 966.162618 10.349241 0.012272 0.142202 -6104.757324 1908.119019 -0.530230 -0.053450 0.789869 89.953945 3165.202637 0.034648 0.035372 0.001553 0.001589 0.000000 0.000000 0.000000 0.000000 0.000000 0.000000 0.000000 0.000000 0.000000 0.000000 0.000000 0.000000 0.000000 0.000000 0.000000 0.000000 0.000000 0.000000 0.000000 0.000000 0.000000 
1.61827 262.883 2.680463 0.119147 41.677910 0.000000 4.000000 89.964923 -0.000612 10000.000000 962.270710 2.000000 -0.642676 4.757324 0.060490 10000.000000 962.270710 10.391102 0.012174 0.142644 -6104.757324 1908.281128 -0.530238 -0.053487 0.789359 89.964908 3175.979004 0.034627 0.035353 0.001553 0.001589 0.000000 0.000000 0.000000 0.000000 0.000000 0.000000 0.000000 0.000000 0.000000 0.000000 0.000000 0.000000 0.000000 0.000000 0.000000 0.000000 0.000000 0.000000 0.000000 0.000000 0.000000 
1.63497 262.9 2.678507 0.120255 41.882996 0.000000 4.000000 89.977313 -0.000396 10000.000000 957.900646 2.000000 -0.642676 4.757324 0.060490 10000.000000 957.900646 10.438511 0.012079 0.143157 -6104.757324 1908.465576 -0.530248 -0.053561 0.788815 89.977298 3188.324463 0.034606 0.035334 0.001554 0.001589 0.000000 0.000000 0.000000 0.000000 0.000000 0.000000 0.000000 0.000000 0.000000 0.000000 0.000000 0.000000 0.000000 0.000000 0.000000 0.000000 0.000000 0.000000 0.000000 0.000000 0.000000 
1.65163 262.917 2.676955 0.121248 41.882996 0.000000 4.000000 89.988220 -0.000206 10000.000000 954.079484 2.000000 -0.642676 4.757324 0.060490 10000.000000 954.079484 10.480321 0.012008 0.143619 -6104.757324 1908.629028 -0.530257 -0.053667 0.788362 89.988205 3199.225830 0.034596 0.035329 0.001554 0.001589 0.000000 0.000000 0.000000 0.000000 0.000000 0.000000 0.000000 0.000000 0.000000 0.000000 0.000000 0.000000 0.000000 0.000000 0.000000 0.000000 0.000000 0.000000 0.000000 0.000000 0.000000 
1.66833 262.933 2.675705 0.122340 41.882996 0.000000 4.000000 90.000563 0.000010 10000.000000 949.786692 2.000000 -0.642188 4.757812 0.060490 10000.000000 949.786692 10.527693 0.011938 0.144156 -6104.757813 1908.815063 -0.530268 -0.053844 0.787880 90.000548 3211.439941 0.034589 0.035326 0.001554 0.001589 0.000000 0.000000 0.000000 0.000000 0.000000 0.000000 0.000000 0.000000 0.000000 0.000000 0.000000 0.000000 0.000000 0.000000 0.000000 0.000000 0.000000 0.000000 0.000000 0.000000 0.000000 
1.685 262.95 2.674812 0.123249 42.361530 0.000000 4.000000 90.011436 0.000200 10000.000000 946.032338 2.000000 -0.642187 4.757813 0.060490 10000.000000 946.032338 10.569476 0.011885 0.144641 -6104.757813 1908.979858 -0.530278 -0.054052 0.787482 90.011421 3222.454102 0.034579 0.035322 0.001555 0.001589 0.000000 0.000000 0.000000 0.000000 0.000000 0.000000 0.000000 0.000000 0.000000 0.000000 0.000000 0.000000 0.000000 0.000000 0.000000 0.000000 0.000000 0.000000 0.000000 0.000000 0.000000 
1.7017 262.967 2.674054 0.124092 42.361530 0.000000 4.000000 90.023751 0.000415 10000.000000 941.813526 2.000000 -0.641699 4.758301 0.060018 10000.000000 941.813526 10.616826 0.011827 0.145204 -6104.758301 1909.167480 -0.530289 -0.054341 0.787060 90.023736 3234.960449 0.034586 0.035336 0.001555 0.001589 0.000000 0.000000 0.000000 0.000000 0.000000 0.000000 0.000000 0.000000 0.000000 0.000000 0.000000 0.000000 0.000000 0.000000 0.000000 0.000000 0.000000 0.000000 0.000000 0.000000 0.000000 
1.71837 262.983 2.674058 0.124640 42.361530 0.000000 4.000000 90.035335 0.000617 10000.000000 937.876303 2.000000 -0.641699 4.758301 0.058762 10000.000000 937.876303 10.661400 0.011771 0.145746 -6104.758301 1909.344849 -0.530300 -0.054649 0.786697 90.035320 3246.455566 0.034595 0.035351 0.001556 0.001589 0.000000 0.000000 0.000000 0.000000 0.000000 0.000000 0.000000 0.000000 0.000000 0.000000 0.000000 0.000000 0.000000 0.000000 0.000000 0.000000 0.000000 0.000000 0.000000 0.000000 0.000000 
1.73507 263 2.674278 0.124762 44.446556 0.000000 4.000000 90.046912 0.000819 10000.000000 933.971612 2.000000 -0.641211 4.758789 0.058762 10000.000000 933.971612 10.705977 0.011701 0.146301 -6104.758789 1909.522827 -0.530311 -0.054970 0.786371 90.046897 3259.365479 0.034608 0.035368 0.001556 0.001590 0.000000 0.000000 0.000000 0.000000 0.000000 0.000000 0.000000 0.000000 0.000000 0.000000 0.000000 0.000000 0.000000 0.000000 0.000000 0.000000 0.000000 0.000000 0.000000 0.000000 0.000000 
1.75173 263.017 2.675904 0.124508 44.446556 0.000000 4.000000 90.058483 0.001021 10000.000000 930.093690 2.000000 -0.640723 4.759277 0.057035 10000.000000 930.093690 10.750620 0.011615 0.146873 -6104.759277 1909.701660 -0.530322 -0.055274 0.786092 90.058468 3272.416504 0.034711 0.035476 0.001560 0.001593 0.000000 0.000000 0.000000 0.000000 0.000000 0.000000 0.000000 0.000000 0.000000 0.000000 0.000000 0.000000 0.000000 0.000000 0.000000 0.000000 0.000000 0.000000 0.000000 0.000000 0.000000 
1.76843 263.033 2.681348 0.123718 44.446556 0.000000 4.000000 90.070032 0.001222 10000.000000 926.235319 2.000000 -0.640234 4.759766 0.057035 10000.000000 926.235319 10.795407 0.011502 0.147472 -6104.759766 1909.881226 -0.530333 -0.055527 0.785899 90.070017 3284.335449 0.034834 0.035601 0.001565 0.001597 0.000000 0.000000 0.000000 0.000000 0.000000 0.000000 0.000000 0.000000 0.000000 0.000000 0.000000 0.000000 0.000000 0.000000 0.000000 0.000000 0.000000 0.000000 0.000000 0.000000 0.000000 
1.7851 263.05 2.687803 0.122799 47.112648 0.000000 4.000000 90.080838 0.001411 10000.000000 922.638437 2.000000 -0.639746 4.760254 0.054208 10000.000000 922.638437 10.837498 0.011377 0.148058 -6104.760254 1910.050293 -0.530342 -0.055693 0.785824 90.080823 3296.726563 0.034913 0.035680 0.001568 0.001601 0.000000 0.000000 0.000000 0.000000 0.000000 0.000000 0.000000 0.000000 0.000000 0.000000 0.000000 0.000000 0.000000 0.000000 0.000000 0.000000 0.000000 0.000000 0.000000 0.000000 0.000000 
1.8018 263.067 2.695301 0.121027 47.112648 0.000000 4.000000 90.093037 0.001624 10000.000000 918.583887 2.000000 -0.639258 4.760742 0.054208 10000.000000 918.583887 10.885339 0.011192 0.148756 -6104.760742 1910.242676 -0.530353 -0.055761 0.785882 90.093022 3310.964844 0.035079 0.035842 0.001574 0.001606 0.000000 0.000000 0.000000 0.000000 0.000000 0.000000 0.000000 0.000000 0.000000 0.000000 0.000000 0.000000 0.000000 0.000000 0.000000 0.000000 0.000000 0.000000 0.000000 0.000000 0.000000 
1.81847 263.083 2.704761 0.119014 47.112648 0.000000 4.000000 90.104450 0.001823 10000.000000 914.783833 2.000000 -0.638770 4.761230 0.050597 10000.000000 914.783833 10.930561 0.010983 0.149454 -6104.761230 1910.424438 -0.530362 -0.055677 0.786115 90.104435 3322.960938 0.035239 0.035996 0.001581 0.001611 0.000000 0.000000 0.000000 0.000000 0.000000 0.000000 0.000000 0.000000 0.000000 0.000000 0.000000 0.000000 0.000000 0.000000 0.000000 0.000000 0.000000 0.000000 0.000000 0.000000 0.000000 
1.83517 263.1 2.714134 0.116149 47.112648 0.000000 4.000000 90.115767 0.002021 10000.000000 911.004167 2.000000 -0.638281 4.761719 0.050597 10000.000000 911.004167 10.975915 0.010725 0.150193 -6104.761719 1910.607056 -0.530371 -0.055409 0.786541 90.115752 3334.190430 0.035323 0.036068 0.001585 0.001614 0.000000 0.000000 0.000000 0.000000 0.000000 0.000000 0.000000 0.000000 0.000000 0.000000 0.000000 0.000000 0.000000 0.000000 0.000000 0.000000 0.000000 0.000000 0.000000 0.000000 0.000000 
1.85183 263.117 2.719800 0.113320 54.769131 0.000000 4.000000 90.126265 0.002204 10000.000000 907.485665 2.000000 -0.637793 4.762207 0.046043 10000.000000 907.485665 11.018475 0.010449 0.150926 -6104.762207 1910.778809 -0.530378 -0.054960 0.787110 90.126250 3350.701904 0.035396 0.036123 0.001588 0.001616 0.000000 0.000000 0.000000 0.000000 0.000000 0.000000 0.000000 0.000000 0.000000 0.000000 0.000000 0.000000 0.000000 0.000000 0.000000 0.000000 0.000000 0.000000 0.000000 0.000000 0.000000 
1.86853 263.133 2.728927 0.109447 54.769131 0.000000 4.000000 90.137296 0.002396 10000.000000 903.739616 2.000000 -0.637305 4.762695 0.046043 10000.000000 903.739616 11.064150 0.010104 0.151776 -6104.762695 1910.962891 -0.530385 -0.054224 0.787929 90.137281 3368.825439 0.035837 0.036546 0.001599 0.001625 0.000000 0.000000 0.000000 0.000000 0.000000 0.000000 0.000000 0.000000 0.000000 0.000000 0.000000 0.000000 0.000000 0.000000 0.000000 0.000000 0.000000 0.000000 0.000000 0.000000 0.000000 
1.8852 263.15 2.752684 0.105474 54.769131 0.000000 4.000000 90.148136 0.002585 10000.000000 899.974621 2.000000 -0.636816 4.763184 0.041646 10000.000000 899.974621 11.110437 0.009720 0.152747 -6104.763184 1911.147705 -0.530391 -0.053207 0.789116 90.148121 3382.711182 0.036384 0.037076 0.001618 0.001641 0.000000 0.000000 0.000000 0.000000 0.000000 0.000000 0.000000 0.000000 0.000000 0.000000 0.000000 0.000000 0.000000 0.000000 0.000000 0.000000 0.000000 0.000000 0.000000 0.000000 0.000000 
1.9019 263.167 2.784911 0.100857 61.400196 0.000000 4.000000 90.159385 0.002782 10000.000000 895.963339 2.000000 -0.635840 4.764160 0.041646 10000.000000 895.963339 11.160179 0.009276 0.153933 -6104.764160 1911.344971 -0.530395 -0.051798 0.790936 90.159370 3400.464111 0.036809 0.037473 0.001634 0.001653 0.000000 0.000000 0.000000 0.000000 0.000000 0.000000 0.000000 0.000000 0.000000 0.000000 0.000000 0.000000 0.000000 0.000000 0.000000 0.000000 0.000000 0.000000 0.000000 0.000000 0.000000 
1.91857 263.183 2.814137 0.096763 61.400196 0.000000 4.000000 90.169692 0.002962 10000.000000 892.180960 2.000000 -0.635352 4.764648 0.037092 10000.000000 892.180960 11.207490 0.008833 0.155215 -6104.764648 1911.531372 -0.530396 -0.050184 0.793269 90.169677 3416.720215 0.037326 0.037962 0.001650 0.001663 0.000000 0.000000 0.000000 0.000000 0.000000 0.000000 0.000000 0.000000 0.000000 0.000000 0.000000 0.000000 0.000000 0.000000 0.000000 0.000000 0.000000 0.000000 0.000000 0.000000 0.000000 
1.93527 263.2 2.843567 0.092789 61.400196 0.000000 4.000000 90.179070 0.003125 10000.000000 888.624256 2.000000 -0.634863 4.765137 0.033480 10000.000000 888.624256 11.252342 0.008405 0.156583 -6104.765137 1911.706787 -0.530394 -0.048433 0.796094 90.179055 3428.812500 0.037757 0.038364 0.001665 0.001671 0.000000 0.000000 0.000000 0.000000 0.000000 0.000000 0.000000 0.000000 0.000000 0.000000 0.000000 0.000000 0.000000 0.000000 0.000000 0.000000 0.000000 0.000000 0.000000 0.000000 0.000000 
1.95193 263.217 2.872532 0.088520 63.827023 0.000000 4.000000 90.189342 0.003305 10000.000000 884.599103 2.000000 -0.633887 4.766113 0.033480 10000.000000 884.599103 11.303535 0.007910 0.158319 -6104.766113 1911.906494 -0.530388 -0.046216 0.800085 90.189327 3443.035400 0.038026 0.038594 0.001674 0.001672 0.000000 0.000000 0.000000 0.000000 0.000000 0.000000 0.000000 0.000000 0.000000 0.000000 0.000000 0.000000 0.000000 0.000000 0.000000 0.000000 0.000000 0.000000 0.000000 0.000000 0.000000 
1.96863 263.233 2.889574 0.085124 63.827023 0.000000 4.000000 90.198057 0.003457 10000.000000 881.064346 2.000000 -0.632910 4.767090 0.030496 10000.000000 881.064346 11.348875 0.007487 0.159993 -6104.767090 1912.083496 -0.530379 -0.044103 0.804267 90.198043 3455.611084 0.038209 0.038742 0.001678 0.001668 0.000000 0.000000 0.000000 0.000000 0.000000 0.000000 0.000000 0.000000 0.000000 0.000000 0.000000 0.000000 0.000000 0.000000 0.000000 0.000000 0.000000 0.000000 0.000000 0.000000 0.000000 
1.9853 263.25 2.901857 0.081821 63.827023 0.000000 4.000000 90.206991 0.003613 10000.000000 877.314843 2.000000 -0.632422 4.767578 0.030496 10000.000000 877.314843 11.397367 0.007047 0.161905 -6104.767578 1912.273071 -0.530366 -0.041753 0.809346 90.206976 3468.113037 0.038356 0.038851 0.001680 0.001661 0.000000 0.000000 0.000000 0.000000 0.000000 0.000000 0.000000 0.000000 0.000000 0.000000 0.000000 0.000000 0.000000 0.000000 0.000000 0.000000 0.000000 0.000000 0.000000 0.000000 0.000000 
