VidTime SimTime LonAccel LatAccel Throttle Brake Gear Heading HeadingError HeadwayDistance HeadwayTime Lane LaneOffset RoadOffset Steer TailwayDistance TailwayTime Velocity LatVelocity VertVelocity XPos YPos ZPos Roll Pitch Yaw EngineRPM SlipFR SlipFL SlipRR SlipRL User1 User2 User3 User4 User5 User6 User7 User8 User9 User10 User11 User12 User13 User14 User15 User16 User17 User18 User19 User20 User21 
0.0166666 281.15 1.467844 -0.000542 0.000000 0.000000 4.000000 90.005166 0.000090 10000.000000 939.958023 2.000000 -0.000586 5.399414 -0.003501 10000.000000 939.958023 10.638559 -0.000107 0.067448 -6105.399414 1929.849731 -0.531274 0.000588 0.363549 90.005151 2123.509521 0.018740 0.018738 0.000824 0.000823 0.000000 0.000000 0.000000 0.000000 0.000000 0.000000 0.000000 0.000000 0.000000 0.000000 0.000000 0.000000 0.000000 0.000000 0.000000 0.000000 0.000000 0.000000 0.000000 0.000000 0.000000 
0.0333667 281.167 1.468677 -0.000485 0.000000 0.000000 4.000000 90.005050 0.000088 10000.000000 937.799134 2.000000 -0.000586 5.399414 -0.003501 10000.000000 937.799134 10.663050 -0.000093 0.067652 -6105.399414 1930.027222 -0.531275 0.000528 0.363789 90.005035 2126.551514 0.018754 0.018753 0.000824 0.000824 0.000000 0.000000 0.000000 0.000000 0.000000 0.000000 0.000000 0.000000 0.000000 0.000000 0.000000 0.000000 0.000000 0.000000 0.000000 0.000000 0.000000 0.000000 0.000000 0.000000 0.000000 
0.0500333 281.183 1.469656 -0.000443 0.000000 0.000000 4.000000 90.004941 0.000086 10000.000000 935.648553 2.000000 -0.000586 5.399414 -0.003344 10000.000000 935.648553 10.687558 -0.000080 0.067859 -6105.399414 1930.205200 -0.531276 0.000460 0.364045 90.004926 2129.662354 0.018770 0.018769 0.000825 0.000824 0.000000 0.000000 0.000000 0.000000 0.000000 0.000000 0.000000 0.000000 0.000000 0.000000 0.000000 0.000000 0.000000 0.000000 0.000000 0.000000 0.000000 0.000000 0.000000 0.000000 0.000000 
0.0667333 281.2 1.470753 -0.000410 0.000000 0.000000 4.000000 90.004838 0.000084 10000.000000 933.506151 2.000000 -0.000586 5.399414 -0.003344 10000.000000 933.506151 10.712086 -0.000068 0.068070 -6105.399414 1930.383545 -0.531277 0.000386 0.364318 90.004823 2132.598633 0.018785 0.018784 0.000825 0.000825 0.000000 0.000000 0.000000 0.000000 0.000000 0.000000 0.000000 0.000000 0.000000 0.000000 0.000000 0.000000 0.000000 0.000000 0.000000 0.000000 0.000000 0.000000 0.000000 0.000000 0.000000 
0.0833999 281.217 1.471820 -0.000388 0.000000 0.000000 4.000000 90.004749 0.000083 10000.000000 931.372131 2.000000 -0.000586 5.399414 -0.003030 10000.000000 931.372131 10.736629 -0.000057 0.068284 -6105.399414 1930.562256 -0.531278 0.000311 0.364609 90.004735 2135.301270 0.018796 0.018796 0.000826 0.000825 0.000000 0.000000 0.000000 0.000000 0.000000 0.000000 0.000000 0.000000 0.000000 0.000000 0.000000 0.000000 0.000000 0.000000 0.000000 0.000000 0.000000 0.000000 0.000000 0.000000 0.000000 
0.1001 281.233 1.472625 -0.000380 0.000000 0.000000 4.000000 90.004668 0.000081 10000.000000 929.247105 2.000000 -0.000586 5.399414 -0.003030 10000.000000 929.247105 10.761182 -0.000047 0.068501 -6105.399414 1930.741455 -0.531278 0.000240 0.364917 90.004653 2137.799805 0.018801 0.018801 0.000826 0.000825 0.000000 0.000000 0.000000 0.000000 0.000000 0.000000 0.000000 0.000000 0.000000 0.000000 0.000000 0.000000 0.000000 0.000000 0.000000 0.000000 0.000000 0.000000 0.000000 0.000000 0.000000 
0.116767 281.25 1.472986 -0.000374 0.000000 0.000000 4.000000 90.004592 0.000080 10000.000000 927.131835 2.000000 -0.000586 5.399414 -0.002873 10000.000000 927.131835 10.785733 -0.000040 0.068718 -6105.399414 1930.921021 -0.531279 0.000174 0.365235 90.004577 2140.222900 0.018800 0.018801 0.000826 0.000825 0.000000 0.000000 0.000000 0.000000 0.000000 0.000000 0.000000 0.000000 0.000000 0.000000 0.000000 0.000000 0.000000 0.000000 0.000000 0.000000 0.000000 0.000000 0.000000 0.000000 0.000000 
0.133467 281.267 1.473000 -0.000352 0.000000 0.000000 4.000000 90.004524 0.000079 10000.000000 925.026419 2.000000 -0.000098 5.399902 -0.002873 10000.000000 925.026419 10.810283 -0.000033 0.068935 -6105.399902 1931.100952 -0.531280 0.000117 0.365557 90.004509 2143.425293 0.018804 0.018805 0.000826 0.000825 0.000000 0.000000 0.000000 0.000000 0.000000 0.000000 0.000000 0.000000 0.000000 0.000000 0.000000 0.000000 0.000000 0.000000 0.000000 0.000000 0.000000 0.000000 0.000000 0.000000 0.000000 
0.150133 281.283 1.473205 -0.000298 0.000000 0.000000 4.000000 90.004469 0.000078 10000.000000 922.929731 2.000000 -0.000098 5.399902 -0.002559 10000.000000 922.929731 10.834841 -0.000026 0.069152 -6105.399902 1931.281250 -0.531280 0.000069 0.365880 90.004455 2146.427002 0.018815 0.018816 0.000826 0.000826 0.000000 0.000000 0.000000 0.000000 0.000000 0.000000 0.000000 0.000000 0.000000 0.000000 0.000000 0.000000 0.000000 0.000000 0.000000 0.000000 0.000000 0.000000 0.000000 0.000000 0.000000 
0.166833 281.3 1.473730 -0.000238 0.000000 0.000000 4.000000 90.004422 0.000077 10000.000000 920.841475 2.000000 -0.000098 5.399902 -0.002559 10000.000000 920.841475 10.859411 -0.000020 0.069368 -6105.399902 1931.462158 -0.531281 0.000029 0.366202 90.004407 2149.490723 0.018826 0.018827 0.000826 0.000826 0.000000 0.000000 0.000000 0.000000 0.000000 0.000000 0.000000 0.000000 0.000000 0.000000 0.000000 0.000000 0.000000 0.000000 0.000000 0.000000 0.000000 0.000000 0.000000 0.000000 0.000000 
0.1835 281.317 1.474487 -0.000166 0.000000 0.000000 4.000000 90.004381 0.000076 10000.000000 918.761279 2.000000 -0.000098 5.399902 -0.002402 10000.000000 918.761279 10.883998 -0.000014 0.069583 -6105.399902 1931.643311 -0.531282 -0.000003 0.366524 90.004366 2152.484619 0.018841 0.018842 0.000827 0.000827 0.000000 0.000000 0.000000 0.000000 0.000000 0.000000 0.000000 0.000000 0.000000 0.000000 0.000000 0.000000 0.000000 0.000000 0.000000 0.000000 0.000000 0.000000 0.000000 0.000000 0.000000 
0.2002 281.333 1.475396 -0.000095 0.000000 0.000000 4.000000 90.004347 0.000076 10000.000000 916.689178 2.000000 -0.000098 5.399902 -0.002402 10000.000000 916.689178 10.908600 -0.000009 0.069798 -6105.399902 1931.824951 -0.531282 -0.000029 0.366846 90.004332 2155.531982 0.018854 0.018855 0.000827 0.000827 0.000000 0.000000 0.000000 0.000000 0.000000 0.000000 0.000000 0.000000 0.000000 0.000000 0.000000 0.000000 0.000000 0.000000 0.000000 0.000000 0.000000 0.000000 0.000000 0.000000 0.000000 
0.216867 281.35 1.476375 -0.000019 0.000000 0.000000 4.000000 90.004326 0.000076 10000.000000 914.624887 2.000000 -0.000098 5.399902 -0.002245 10000.000000 914.624887 10.933220 -0.000004 0.070014 -6105.399902 1932.006958 -0.531283 -0.000049 0.367167 90.004311 2158.514648 0.018869 0.018871 0.000828 0.000828 0.000000 0.000000 0.000000 0.000000 0.000000 0.000000 0.000000 0.000000 0.000000 0.000000 0.000000 0.000000 0.000000 0.000000 0.000000 0.000000 0.000000 0.000000 0.000000 0.000000 0.000000 
0.233567 281.367 1.477396 -0.000013 0.000000 0.000000 4.000000 90.004312 0.000075 10000.000000 912.568442 2.000000 -0.000098 5.399902 -0.002088 10000.000000 912.568442 10.957857 -0.000003 0.070230 -6105.399902 1932.189331 -0.531284 -0.000064 0.367489 90.004297 2161.538086 0.018882 0.018883 0.000829 0.000828 0.000000 0.000000 0.000000 0.000000 0.000000 0.000000 0.000000 0.000000 0.000000 0.000000 0.000000 0.000000 0.000000 0.000000 0.000000 0.000000 0.000000 0.000000 0.000000 0.000000 0.000000 
0.250233 281.383 1.478411 -0.000405 0.000000 0.000000 4.000000 90.004299 0.000075 10000.000000 910.519801 2.000000 -0.000098 5.399902 -0.002088 10000.000000 910.519801 10.982512 -0.000014 0.070447 -6105.399902 1932.372192 -0.531285 -0.000062 0.367813 90.004284 2164.493408 0.018898 0.018898 0.000829 0.000829 0.000000 0.000000 0.000000 0.000000 0.000000 0.000000 0.000000 0.000000 0.000000 0.000000 0.000000 0.000000 0.000000 0.000000 0.000000 0.000000 0.000000 0.000000 0.000000 0.000000 0.000000 
0.266933 281.4 1.479419 -0.000973 0.000000 0.000000 4.000000 90.004278 0.000075 10000.000000 908.479078 2.000000 -0.000098 5.399902 -0.001931 10000.000000 908.479078 11.007181 -0.000035 0.070664 -6105.399902 1932.555420 -0.531286 -0.000030 0.368138 90.004263 2167.520020 0.018912 0.018910 0.000829 0.000830 0.000000 0.000000 0.000000 0.000000 0.000000 0.000000 0.000000 0.000000 0.000000 0.000000 0.000000 0.000000 0.000000 0.000000 0.000000 0.000000 0.000000 0.000000 0.000000 0.000000 0.000000 
0.2836 281.417 1.480408 -0.001604 0.000000 0.000000 4.000000 90.004251 0.000074 10000.000000 906.445993 2.000000 -0.000098 5.399902 -0.001931 10000.000000 906.445993 11.031869 -0.000065 0.070882 -6105.399902 1932.739136 -0.531287 0.000041 0.368464 90.004236 2170.450195 0.018927 0.018924 0.000830 0.000830 0.000000 0.000000 0.000000 0.000000 0.000000 0.000000 0.000000 0.000000 0.000000 0.000000 0.000000 0.000000 0.000000 0.000000 0.000000 0.000000 0.000000 0.000000 0.000000 0.000000 0.000000 
0.3003 281.433 1.481372 -0.002124 0.000000 0.000000 4.000000 90.004203 0.000073 10000.000000 904.420896 2.000000 -0.000098 5.399902 -0.001931 10000.000000 904.420896 11.056570 -0.000098 0.071100 -6105.399902 1932.923218 -0.531288 0.000156 0.368792 90.004188 2173.427734 0.018940 0.018935 0.000830 0.000831 0.000000 0.000000 0.000000 0.000000 0.000000 0.000000 0.000000 0.000000 0.000000 0.000000 0.000000 0.000000 0.000000 0.000000 0.000000 0.000000 0.000000 0.000000 0.000000 0.000000 0.000000 
0.316967 281.45 1.482286 -0.002458 0.000000 0.000000 4.000000 90.004142 0.000072 10000.000000 902.403507 2.000000 -0.000098 5.399902 -0.001931 10000.000000 902.403507 11.081287 -0.000130 0.071320 -6105.399902 1933.107666 -0.531289 0.000307 0.369121 90.004127 2176.350342 0.018955 0.018948 0.000830 0.000831 0.000000 0.000000 0.000000 0.000000 0.000000 0.000000 0.000000 0.000000 0.000000 0.000000 0.000000 0.000000 0.000000 0.000000 0.000000 0.000000 0.000000 0.000000 0.000000 0.000000 0.000000 
0.333667 281.467 1.483211 -0.002617 0.000000 0.000000 4.000000 90.004053 0.000071 10000.000000 900.393860 2.000000 -0.000098 5.399902 -0.001774 10000.000000 900.393860 11.106020 -0.000158 0.071540 -6105.399902 1933.292603 -0.531290 0.000484 0.369451 90.004038 2179.524658 0.018969 0.018961 0.000831 0.000832 0.000000 0.000000 0.000000 0.000000 0.000000 0.000000 0.000000 0.000000 0.000000 0.000000 0.000000 0.000000 0.000000 0.000000 0.000000 0.000000 0.000000 0.000000 0.000000 0.000000 0.000000 
0.350333 281.483 1.484224 -0.002645 0.000000 0.000000 4.000000 90.003950 0.000069 10000.000000 898.391606 2.000000 -0.000098 5.399902 -0.001774 10000.000000 898.391606 11.130772 -0.000181 0.071761 -6105.399902 1933.477905 -0.531292 0.000673 0.369782 90.003935 2182.437012 0.018985 0.018975 0.000832 0.000833 0.000000 0.000000 0.000000 0.000000 0.000000 0.000000 0.000000 0.000000 0.000000 0.000000 0.000000 0.000000 0.000000 0.000000 0.000000 0.000000 0.000000 0.000000 0.000000 0.000000 0.000000 
0.367033 281.5 1.485267 -0.002591 0.000000 0.000000 4.000000 90.003821 0.000067 10000.000000 896.396857 2.000000 -0.000098 5.399902 -0.001617 10000.000000 896.396857 11.155540 -0.000198 0.071983 -6105.399902 1933.663574 -0.531293 0.000862 0.370115 90.003806 2185.595459 0.019000 0.018990 0.000832 0.000833 0.000000 0.000000 0.000000 0.000000 0.000000 0.000000 0.000000 0.000000 0.000000 0.000000 0.000000 0.000000 0.000000 0.000000 0.000000 0.000000 0.000000 0.000000 0.000000 0.000000 0.000000 
0.3837 281.517 1.486353 -0.002499 0.000000 0.000000 4.000000 90.003670 0.000064 10000.000000 894.409573 2.000000 -0.000098 5.399902 -0.001617 10000.000000 894.409573 11.180327 -0.000210 0.072206 -6105.399902 1933.849731 -0.531294 0.001038 0.370451 90.003655 2188.432617 0.019016 0.019004 0.000833 0.000834 0.000000 0.000000 0.000000 0.000000 0.000000 0.000000 0.000000 0.000000 0.000000 0.000000 0.000000 0.000000 0.000000 0.000000 0.000000 0.000000 0.000000 0.000000 0.000000 0.000000 0.000000 
0.4004 281.533 1.487342 -0.002403 0.000000 0.000000 4.000000 90.003506 0.000061 10000.000000 892.429867 2.000000 -0.000098 5.399902 -0.001617 10000.000000 892.429867 11.205129 -0.000215 0.072430 -6105.399902 1934.036255 -0.531296 0.001190 0.370789 90.003491 2191.384521 0.019027 0.019015 0.000833 0.000834 0.000000 0.000000 0.000000 0.000000 0.000000 0.000000 0.000000 0.000000 0.000000 0.000000 0.000000 0.000000 0.000000 0.000000 0.000000 0.000000 0.000000 0.000000 0.000000 0.000000 0.000000 
0.417067 281.55 1.488212 -0.002319 0.000000 0.000000 4.000000 90.003322 0.000058 10000.000000 890.457770 2.000000 -0.000098 5.399902 -0.001617 10000.000000 890.457770 11.229944 -0.000217 0.072655 -6105.399902 1934.223267 -0.531297 0.001313 0.371128 90.003307 2194.377441 0.019040 0.019028 0.000834 0.000834 0.000000 0.000000 0.000000 0.000000 0.000000 0.000000 0.000000 0.000000 0.000000 0.000000 0.000000 0.000000 0.000000 0.000000 0.000000 0.000000 0.000000 0.000000 0.000000 0.000000 0.000000 
0.433767 281.567 1.489107 -0.002258 0.000000 0.000000 4.000000 90.003124 0.000055 10000.000000 888.493165 2.000000 -0.000098 5.399902 -0.001460 10000.000000 888.493165 11.254775 -0.000215 0.072881 -6105.399902 1934.410645 -0.531299 0.001402 0.371468 90.003109 2197.533203 0.019054 0.019043 0.000834 0.000835 0.000000 0.000000 0.000000 0.000000 0.000000 0.000000 0.000000 0.000000 0.000000 0.000000 0.000000 0.000000 0.000000 0.000000 0.000000 0.000000 0.000000 0.000000 0.000000 0.000000 0.000000 
0.450433 281.583 1.490127 -0.002221 0.000000 0.000000 4.000000 90.002912 0.000051 10000.000000 886.535712 2.000000 -0.000098 5.399902 -0.001460 10000.000000 886.535712 11.279625 -0.000210 0.073108 -6105.399902 1934.598389 -0.531300 0.001457 0.371809 90.002897 2200.537842 0.019070 0.019058 0.000835 0.000835 0.000000 0.000000 0.000000 0.000000 0.000000 0.000000 0.000000 0.000000 0.000000 0.000000 0.000000 0.000000 0.000000 0.000000 0.000000 0.000000 0.000000 0.000000 0.000000 0.000000 0.000000 
0.467133 281.6 1.491205 -0.002207 0.000000 0.000000 4.000000 90.002687 0.000047 10000.000000 884.585446 2.000000 -0.000098 5.399902 -0.001460 10000.000000 884.585446 11.304493 -0.000203 0.073336 -6105.399902 1934.786621 -0.531302 0.001480 0.372152 90.002672 2203.613281 0.019085 0.019074 0.000836 0.000836 0.000000 0.000000 0.000000 0.000000 0.000000 0.000000 0.000000 0.000000 0.000000 0.000000 0.000000 0.000000 0.000000 0.000000 0.000000 0.000000 0.000000 0.000000 0.000000 0.000000 0.000000 
0.4838 281.617 1.492303 -0.002211 0.000000 0.000000 4.000000 90.002461 0.000043 10000.000000 882.642331 2.000000 -0.000098 5.399902 -0.001460 10000.000000 882.642331 11.329379 -0.000195 0.073566 -6105.399902 1934.975220 -0.531303 0.001473 0.372498 90.002446 2206.327148 0.019098 0.019088 0.000836 0.000836 0.000000 0.000000 0.000000 0.000000 0.000000 0.000000 0.000000 0.000000 0.000000 0.000000 0.000000 0.000000 0.000000 0.000000 0.000000 0.000000 0.000000 0.000000 0.000000 0.000000 0.000000 
0.5005 281.633 1.493194 -0.002236 0.000000 0.000000 4.000000 90.002222 0.000039 10000.000000 880.706920 2.000000 -0.000098 5.399902 -0.001460 10000.000000 880.706920 11.354276 -0.000186 0.073795 -6105.399902 1935.164307 -0.531305 0.001443 0.372845 90.002207 2209.211670 0.019106 0.019097 0.000837 0.000837 0.000000 0.000000 0.000000 0.000000 0.000000 0.000000 0.000000 0.000000 0.000000 0.000000 0.000000 0.000000 0.000000 0.000000 0.000000 0.000000 0.000000 0.000000 0.000000 0.000000 0.000000 
0.517167 281.65 1.493899 -0.002249 0.000000 0.000000 4.000000 90.001990 0.000035 10000.000000 878.779168 2.000000 -0.000098 5.399902 -0.001303 191.996670 16.872267 11.379183 -0.000177 0.074025 -6105.399902 1935.353760 -0.531306 0.001394 0.373191 90.001975 2212.246826 0.019117 0.019109 0.000837 0.000837 0.000000 0.000000 0.000000 0.000000 0.000000 0.000000 0.000000 0.000000 0.000000 0.000000 0.000000 0.000000 0.000000 0.000000 0.000000 0.000000 0.000000 0.000000 0.000000 0.000000 0.000000 
0.533867 281.667 1.494654 -0.002247 0.000000 0.000000 4.000000 90.001751 0.000031 10000.000000 876.858663 2.000000 -0.000098 5.399902 -0.001303 191.897686 16.826715 11.404105 -0.000167 0.074255 -6105.399902 1935.543579 -0.531308 0.001331 0.373535 90.001736 2215.254883 0.019129 0.019122 0.000838 0.000837 0.000000 0.000000 0.000000 0.000000 0.000000 0.000000 0.000000 0.000000 0.000000 0.000000 0.000000 0.000000 0.000000 0.000000 0.000000 0.000000 0.000000 0.000000 0.000000 0.000000 0.000000 
0.550533 281.683 1.495479 -0.002238 0.000000 0.000000 4.000000 90.001512 0.000026 10000.000000 874.945513 2.000000 -0.000098 5.399902 -0.001303 191.799191 16.781384 11.429040 -0.000158 0.074485 -6105.399902 1935.733887 -0.531309 0.001259 0.373877 90.001497 2217.929932 0.019140 0.019133 0.000838 0.000838 0.000000 0.000000 0.000000 0.000000 0.000000 0.000000 0.000000 0.000000 0.000000 0.000000 0.000000 0.000000 0.000000 0.000000 0.000000 0.000000 0.000000 0.000000 0.000000 0.000000 0.000000 
0.567233 281.7 1.496174 -0.002224 0.000000 0.000000 4.000000 90.001287 0.000022 10000.000000 873.039965 2.000000 -0.000098 5.399902 -0.001303 191.701063 16.736269 11.453985 -0.000149 0.074714 -6105.399902 1935.924561 -0.531311 0.001183 0.374215 90.001272 2220.916504 0.019148 0.019142 0.000838 0.000838 0.000000 0.000000 0.000000 0.000000 0.000000 0.000000 0.000000 0.000000 0.000000 0.000000 0.000000 0.000000 0.000000 0.000000 0.000000 0.000000 0.000000 0.000000 0.000000 0.000000 0.000000 
0.5839 281.717 1.496792 -0.002183 0.000000 0.000000 4.000000 90.001054 0.000018 10000.000000 871.142049 2.000000 -0.000098 5.399902 -0.001146 191.603424 16.691380 11.478939 -0.000139 0.074942 -6105.399902 1936.115723 -0.531313 0.001107 0.374548 90.001039 2223.609863 0.019156 0.019151 0.000839 0.000838 0.000000 0.000000 0.000000 0.000000 0.000000 0.000000 0.000000 0.000000 0.000000 0.000000 0.000000 0.000000 0.000000 0.000000 0.000000 0.000000 0.000000 0.000000 0.000000 0.000000 0.000000 
0.6006 281.733 1.497295 -0.002133 0.000000 0.000000 4.000000 90.000836 0.000015 10000.000000 869.251862 2.000000 -0.000098 5.399902 -0.001146 191.506152 16.646708 11.503900 -0.000130 0.075168 -6105.399902 1936.307251 -0.531314 0.001033 0.374872 90.000821 2226.551025 0.019163 0.019158 0.000839 0.000838 0.000000 0.000000 0.000000 0.000000 0.000000 0.000000 0.000000 0.000000 0.000000 0.000000 0.000000 0.000000 0.000000 0.000000 0.000000 0.000000 0.000000 0.000000 0.000000 0.000000 0.000000 
0.617267 281.75 1.497765 -0.002050 0.000000 0.000000 4.000000 90.000631 0.000011 10000.000000 867.369286 2.000000 -0.000098 5.399902 -0.001146 191.409246 16.602250 11.528869 -0.000121 0.075392 -6105.399902 1936.499146 -0.531316 0.000963 0.375186 90.000616 2229.374268 0.019171 0.019166 0.000839 0.000839 0.000000 0.000000 0.000000 0.000000 0.000000 0.000000 0.000000 0.000000 0.000000 0.000000 0.000000 0.000000 0.000000 0.000000 0.000000 0.000000 0.000000 0.000000 0.000000 0.000000 0.000000 
0.633967 281.767 1.498272 -0.001944 0.000000 0.000000 4.000000 90.000426 0.000007 10000.000000 865.494060 2.000000 -0.000098 5.399902 -0.001146 191.312830 16.558012 11.553847 -0.000112 0.075613 -6105.399902 1936.691528 -0.531318 0.000897 0.375489 90.000411 2232.455811 0.019181 0.019177 0.000840 0.000839 0.000000 0.000000 0.000000 0.000000 0.000000 0.000000 0.000000 0.000000 0.000000 0.000000 0.000000 0.000000 0.000000 0.000000 0.000000 0.000000 0.000000 0.000000 0.000000 0.000000 0.000000 
0.650633 281.783 1.498916 -0.001817 0.000000 0.000000 4.000000 90.000235 0.000004 10000.000000 863.626001 2.000000 -0.000098 5.399902 -0.000989 191.216780 16.513978 11.578838 -0.000102 0.075833 -6105.399902 1936.884277 -0.531319 0.000835 0.375781 90.000220 2235.195068 0.019192 0.019188 0.000840 0.000839 0.000000 0.000000 0.000000 0.000000 0.000000 0.000000 0.000000 0.000000 0.000000 0.000000 0.000000 0.000000 0.000000 0.000000 0.000000 0.000000 0.000000 0.000000 0.000000 0.000000 0.000000 
0.667333 281.8 1.499597 -0.001683 0.000000 0.000000 4.000000 90.000043 0.000001 10000.000000 861.649216 2.000000 -0.000098 5.399902 -0.000989 191.133304 16.468986 11.605402 -0.000092 0.076063 -6105.399902 1937.089600 -0.531321 0.000773 0.376079 90.000029 2238.437744 0.019200 0.019197 0.000840 0.000840 0.000000 0.000000 0.000000 0.000000 0.000000 0.000000 0.000000 0.000000 0.000000 0.000000 0.000000 0.000000 0.000000 0.000000 0.000000 0.000000 0.000000 0.000000 0.000000 0.000000 0.000000 
0.684 281.817 1.500163 -0.001548 0.000000 0.000000 4.000000 89.999893 -0.000002 10000.000000 859.911784 2.000000 -0.000098 5.399902 -0.000989 191.026025 16.426553 11.628850 -0.000082 0.076265 -6105.399902 1937.271118 -0.531323 0.000722 0.376330 89.999878 2241.083008 0.019208 0.019205 0.000841 0.000840 0.000000 0.000000 0.000000 0.000000 0.000000 0.000000 0.000000 0.000000 0.000000 0.000000 0.000000 0.000000 0.000000 0.000000 0.000000 0.000000 0.000000 0.000000 0.000000 0.000000 0.000000 
0.7007 281.817 1.500163 -0.001548 0.000000 0.000000 4.000000 89.999893 -0.000002 10000.000000 859.911784 2.000000 -0.000098 5.399902 -0.000989 191.026025 16.426553 11.628850 -0.000082 0.076265 -6105.399902 1937.271118 -0.531323 0.000722 0.376330 89.999878 2241.083008 0.019208 0.019205 0.000841 0.000840 0.000000 0.000000 0.000000 0.000000 0.000000 0.000000 0.000000 0.000000 0.000000 0.000000 0.000000 0.000000 0.000000 0.000000 0.000000 0.000000 0.000000 0.000000 0.000000 0.000000 0.000000 
0.717367 281.85 1.501261 -0.001247 0.000000 0.000000 4.000000 89.999593 -0.000007 10000.000000 856.226722 2.000000 -0.000098 5.399902 -0.000989 190.836860 16.339962 11.678898 -0.000062 0.076688 -6105.399902 1937.659546 -0.531327 0.000618 0.376831 89.999578 2247.429199 0.019228 0.019226 0.000841 0.000840 0.000000 0.000000 0.000000 0.000000 0.000000 0.000000 0.000000 0.000000 0.000000 0.000000 0.000000 0.000000 0.000000 0.000000 0.000000 0.000000 0.000000 0.000000 0.000000 0.000000 0.000000 
0.734067 281.867 1.501929 -0.001079 0.000000 0.000000 4.000000 89.999463 -0.000009 10000.000000 854.394861 2.000000 -0.000098 5.399902 -0.000832 190.742889 16.296974 11.703938 -0.000052 0.076897 -6105.399902 1937.854370 -0.531329 0.000566 0.377064 89.999448 2249.118652 0.019229 0.019228 0.000841 0.000841 0.000000 0.000000 0.000000 0.000000 0.000000 0.000000 0.000000 0.000000 0.000000 0.000000 0.000000 0.000000 0.000000 0.000000 0.000000 0.000000 0.000000 0.000000 0.000000 0.000000 0.000000 
0.750733 281.883 1.501900 -0.000912 0.000000 0.000000 4.000000 89.999347 -0.000011 10000.000000 852.571791 2.000000 -0.000098 5.399902 -0.000832 190.649407 16.254231 11.728964 -0.000041 0.077101 -6105.399902 1938.049683 -0.531332 0.000512 0.377281 89.999332 2253.355957 0.019227 0.019226 0.000841 0.000840 0.000000 0.000000 0.000000 0.000000 0.000000 0.000000 0.000000 0.000000 0.000000 0.000000 0.000000 0.000000 0.000000 0.000000 0.000000 0.000000 0.000000 0.000000 0.000000 0.000000 0.000000 
0.767433 281.9 1.502235 -0.000752 0.000000 0.000000 4.000000 89.999251 -0.000013 10000.000000 850.754829 2.000000 -0.000098 5.399902 -0.000832 190.556292 16.211669 11.754013 -0.000031 0.077303 -6105.399902 1938.245361 -0.531334 0.000456 0.377482 89.999236 2257.102295 0.019255 0.019255 0.000842 0.000841 0.000000 0.000000 0.000000 0.000000 0.000000 0.000000 0.000000 0.000000 0.000000 0.000000 0.000000 0.000000 0.000000 0.000000 0.000000 0.000000 0.000000 0.000000 0.000000 0.000000 0.000000 
0.7841 281.917 1.503679 -0.000609 0.000000 0.000000 4.000000 89.999162 -0.000015 10000.000000 848.943051 2.000000 -0.000098 5.399902 -0.000832 190.463665 16.169281 11.779099 -0.000021 0.077507 -6105.399902 1938.441528 -0.531336 0.000397 0.377677 89.999147 2260.067627 0.019279 0.019279 0.000843 0.000842 0.000000 0.000000 0.000000 0.000000 0.000000 0.000000 0.000000 0.000000 0.000000 0.000000 0.000000 0.000000 0.000000 0.000000 0.000000 0.000000 0.000000 0.000000 0.000000 0.000000 0.000000 
0.8008 281.933 1.505322 -0.000489 0.000000 0.000000 4.000000 89.999087 -0.000016 10000.000000 847.137126 2.000000 -0.000098 5.399902 -0.000832 190.371406 16.127069 11.804209 -0.000013 0.077712 -6105.399902 1938.638062 -0.531338 0.000337 0.377872 89.999072 2263.252686 0.019297 0.019297 0.000844 0.000843 0.000000 0.000000 0.000000 0.000000 0.000000 0.000000 0.000000 0.000000 0.000000 0.000000 0.000000 0.000000 0.000000 0.000000 0.000000 0.000000 0.000000 0.000000 0.000000 0.000000 0.000000 
0.817467 281.95 1.506775 -0.000371 0.000000 0.000000 4.000000 89.999026 -0.000017 10000.000000 845.337369 2.000000 -0.000098 5.399902 -0.000832 190.279513 16.085038 11.829340 -0.000004 0.077919 -6105.399902 1938.834961 -0.531341 0.000276 0.378072 89.999011 2266.093262 0.019311 0.019312 0.000844 0.000844 0.000000 0.000000 0.000000 0.000000 0.000000 0.000000 0.000000 0.000000 0.000000 0.000000 0.000000 0.000000 0.000000 0.000000 0.000000 0.000000 0.000000 0.000000 0.000000 0.000000 0.000000 
0.834167 281.95 1.506775 -0.000371 0.000000 0.000000 4.000000 89.999026 -0.000017 10000.000000 845.337369 2.000000 -0.000098 5.399902 -0.000832 190.279513 16.085038 11.829340 -0.000004 0.077919 -6105.399902 1938.834961 -0.531341 0.000276 0.378072 89.999011 2266.093262 0.019311 0.019312 0.000844 0.000844 0.000000 0.000000 0.000000 0.000000 0.000000 0.000000 0.000000 0.000000 0.000000 0.000000 0.000000 0.000000 0.000000 0.000000 0.000000 0.000000 0.000000 0.000000 0.000000 0.000000 0.000000 
0.850833 281.983 1.508883 -0.000148 0.000000 0.000000 4.000000 89.998937 -0.000019 10000.000000 841.757591 2.000000 -0.000098 5.399902 -0.000675 190.097073 16.001565 11.879646 0.000010 0.078343 -6105.399902 1939.230103 -0.531345 0.000154 0.378493 89.998922 2272.125000 0.019335 0.019336 0.000845 0.000845 0.000000 0.000000 0.000000 0.000000 0.000000 0.000000 0.000000 0.000000 0.000000 0.000000 0.000000 0.000000 0.000000 0.000000 0.000000 0.000000 0.000000 0.000000 0.000000 0.000000 0.000000 
0.867533 282 1.509659 -0.000048 0.000000 0.000000 4.000000 89.998910 -0.000019 10000.000000 839.977836 2.000000 -0.000098 5.399902 -0.000675 190.006526 15.960127 11.904817 0.000016 0.078558 -6105.399902 1939.428345 -0.531348 0.000094 0.378714 89.998895 2275.246094 0.019344 0.019346 0.000846 0.000845 0.000000 0.000000 0.000000 0.000000 0.000000 0.000000 0.000000 0.000000 0.000000 0.000000 0.000000 0.000000 0.000000 0.000000 0.000000 0.000000 0.000000 0.000000 0.000000 0.000000 0.000000 
0.8842 282.017 1.510337 0.000051 0.000000 0.000000 4.000000 89.998896 -0.000019 10000.000000 838.204854 2.000000 -0.000098 5.399902 -0.000675 189.916345 15.918880 11.929997 0.000021 0.078775 -6105.399902 1939.626953 -0.531350 0.000036 0.378943 89.998881 2278.076416 0.019353 0.019355 0.000846 0.000845 0.000000 0.000000 0.000000 0.000000 0.000000 0.000000 0.000000 0.000000 0.000000 0.000000 0.000000 0.000000 0.000000 0.000000 0.000000 0.000000 0.000000 0.000000 0.000000 0.000000 0.000000 
0.9009 282.017 1.510337 0.000051 0.000000 0.000000 4.000000 89.998896 -0.000019 10000.000000 838.204854 2.000000 -0.000098 5.399902 -0.000675 189.916345 15.918880 11.929997 0.000021 0.078775 -6105.399902 1939.626953 -0.531350 0.000036 0.378943 89.998881 2278.076416 0.019353 0.019355 0.000846 0.000845 0.000000 0.000000 0.000000 0.000000 0.000000 0.000000 0.000000 0.000000 0.000000 0.000000 0.000000 0.000000 0.000000 0.000000 0.000000 0.000000 0.000000 0.000000 0.000000 0.000000 0.000000 
0.917567 282.05 1.511333 0.000222 0.000000 0.000000 4.000000 89.998896 -0.000019 10000.000000 834.679789 2.000000 -0.000098 5.399902 -0.000675 189.737329 15.836991 11.980380 0.000029 0.079214 -6105.399902 1940.025513 -0.531354 -0.000072 0.379415 89.998881 2283.905029 0.019366 0.019369 0.000846 0.000846 0.000000 0.000000 0.000000 0.000000 0.000000 0.000000 0.000000 0.000000 0.000000 0.000000 0.000000 0.000000 0.000000 0.000000 0.000000 0.000000 0.000000 0.000000 0.000000 0.000000 0.000000 
0.934267 282.05 1.511333 0.000222 0.000000 0.000000 4.000000 89.998896 -0.000019 10000.000000 834.679789 2.000000 -0.000098 5.399902 -0.000675 189.737329 15.836991 11.980380 0.000029 0.079214 -6105.399902 1940.025513 -0.531354 -0.000072 0.379415 89.998881 2283.905029 0.019366 0.019369 0.000846 0.000846 0.000000 0.000000 0.000000 0.000000 0.000000 0.000000 0.000000 0.000000 0.000000 0.000000 0.000000 0.000000 0.000000 0.000000 0.000000 0.000000 0.000000 0.000000 0.000000 0.000000 0.000000 
0.950933 282.083 1.496023 0.000377 0.000000 0.000000 4.000000 89.998930 -0.000019 10000.000000 831.227999 2.000000 -0.000098 5.399902 -0.000518 189.559902 15.756750 12.030130 0.000035 0.079578 -6105.399902 1940.425659 -0.531358 -0.000165 0.379748 89.998915 2253.495117 0.018767 0.018769 0.000825 0.000825 0.000000 0.000000 0.000000 0.000000 0.000000 0.000000 0.000000 0.000000 0.000000 0.000000 0.000000 0.000000 0.000000 0.000000 0.000000 0.000000 0.000000 0.000000 0.000000 0.000000 0.000000 
0.967633 282.1 1.466724 0.000442 0.000000 0.000000 4.000000 89.998957 -0.000018 10000.000000 829.575724 2.000000 -0.000098 5.399902 -0.000518 189.471800 15.718121 12.054091 0.000038 0.079639 -6105.399902 1940.626343 -0.531361 -0.000203 0.379544 89.998943 2239.324707 0.018255 0.018257 0.000802 0.000801 0.000000 0.000000 0.000000 0.000000 0.000000 0.000000 0.000000 0.000000 0.000000 0.000000 0.000000 0.000000 0.000000 0.000000 0.000000 0.000000 0.000000 0.000000 0.000000 0.000000 0.000000 
0.9843 282.117 1.427331 0.000504 0.000000 0.000000 4.000000 89.998992 -0.000018 10000.000000 827.982109 2.000000 -0.000098 5.399902 -0.000518 189.384187 15.680672 12.077293 0.000039 0.079572 -6105.399902 1940.827515 -0.531365 -0.000236 0.378846 89.998977 2230.156494 0.017730 0.017733 0.000777 0.000776 0.000000 0.000000 0.000000 0.000000 0.000000 0.000000 0.000000 0.000000 0.000000 0.000000 0.000000 0.000000 0.000000 0.000000 0.000000 0.000000 0.000000 0.000000 0.000000 0.000000 0.000000 
1.001 282.133 1.384871 0.000562 0.000000 0.000000 4.000000 89.999033 -0.000017 10000.000000 826.443193 2.000000 -0.000098 5.399902 -0.000518 189.296819 15.644307 12.099785 0.000041 0.079366 -6105.399902 1941.028931 -0.531371 -0.000263 0.377504 89.999018 2220.503174 0.017250 0.017253 0.000754 0.000754 0.000000 0.000000 0.000000 0.000000 0.000000 0.000000 0.000000 0.000000 0.000000 0.000000 0.000000 0.000000 0.000000 0.000000 0.000000 0.000000 0.000000 0.000000 0.000000 0.000000 0.000000 
1.01767 282.15 1.343650 0.000608 0.000000 0.000000 4.000000 89.999080 -0.000016 10000.000000 824.954249 2.000000 -0.000098 5.399902 -0.000518 189.209940 15.608954 12.121627 0.000042 0.079028 -6105.399902 1941.230835 -0.531377 -0.000288 0.375414 89.999065 2215.655273 0.016832 0.016834 0.000733 0.000733 0.000000 0.000000 0.000000 0.000000 0.000000 0.000000 0.000000 0.000000 0.000000 0.000000 0.000000 0.000000 0.000000 0.000000 0.000000 0.000000 0.000000 0.000000 0.000000 0.000000 0.000000 
1.03437 282.167 1.306997 0.000645 0.000000 0.000000 4.000000 89.999128 -0.000015 10000.000000 823.506553 2.000000 -0.000098 5.399902 -0.000518 189.123306 15.574428 12.142941 0.000042 0.078560 -6105.399902 1941.432983 -0.531384 -0.000309 0.372523 89.999113 2212.222168 0.016501 0.016503 0.000717 0.000717 0.000000 0.000000 0.000000 0.000000 0.000000 0.000000 0.000000 0.000000 0.000000 0.000000 0.000000 0.000000 0.000000 0.000000 0.000000 0.000000 0.000000 0.000000 0.000000 0.000000 0.000000 
1.05103 282.183 1.276800 0.000676 0.000000 0.000000 4.000000 89.999183 -0.000014 10000.000000 822.091385 2.000000 -0.000098 5.399902 -0.000361 189.037161 15.540582 12.163848 0.000042 0.077977 -6105.399902 1941.635620 -0.531390 -0.000327 0.368838 89.999168 2212.018555 0.016257 0.016259 0.000706 0.000706 0.000000 0.000000 0.000000 0.000000 0.000000 0.000000 0.000000 0.000000 0.000000 0.000000 0.000000 0.000000 0.000000 0.000000 0.000000 0.000000 0.000000 0.000000 0.000000 0.000000 0.000000 
1.06773 282.2 1.253496 0.000701 0.000000 0.000000 4.000000 89.999244 -0.000013 10000.000000 820.701178 2.000000 -0.000098 5.399902 -0.000361 188.951261 15.507252 12.184458 0.000042 0.077290 -6105.399902 1941.838501 -0.531394 -0.000341 0.364412 89.999229 2208.885254 0.016056 0.016058 0.000697 0.000698 0.000000 0.000000 0.000000 0.000000 0.000000 0.000000 0.000000 0.000000 0.000000 0.000000 0.000000 0.000000 0.000000 0.000000 0.000000 0.000000 0.000000 0.000000 0.000000 0.000000 0.000000 
1.0844 282.217 1.234385 0.000716 0.000000 0.000000 4.000000 89.999306 -0.000012 10000.000000 819.334614 2.000000 -0.000098 5.399902 -0.000361 188.865728 15.474423 12.204786 0.000041 0.076507 -6105.399902 1942.041748 -0.531396 -0.000353 0.359314 89.999291 2206.034180 0.015842 0.015844 0.000689 0.000690 0.000000 0.000000 0.000000 0.000000 0.000000 0.000000 0.000000 0.000000 0.000000 0.000000 0.000000 0.000000 0.000000 0.000000 0.000000 0.000000 0.000000 0.000000 0.000000 0.000000 0.000000 
1.1011 282.233 1.215821 0.000725 0.000000 0.000000 4.000000 89.999367 -0.000011 10000.000000 817.993970 2.000000 -0.000098 5.399902 -0.000361 188.780562 15.442136 12.224795 0.000040 0.075628 -6105.399902 1942.245361 -0.531395 -0.000361 0.353609 89.999352 2203.851807 0.015599 0.015601 0.000680 0.000681 0.000000 0.000000 0.000000 0.000000 0.000000 0.000000 0.000000 0.000000 0.000000 0.000000 0.000000 0.000000 0.000000 0.000000 0.000000 0.000000 0.000000 0.000000 0.000000 0.000000 0.000000 
1.11777 282.25 1.196466 0.000731 0.000000 0.000000 4.000000 89.999429 -0.000010 10000.000000 816.679650 2.000000 -0.000098 5.399902 -0.000203 188.695641 15.410389 12.244475 0.000039 0.074651 -6105.399902 1942.449219 -0.531390 -0.000367 0.347352 89.999414 2203.951660 0.015378 0.015380 0.000671 0.000672 0.000000 0.000000 0.000000 0.000000 0.000000 0.000000 0.000000 0.000000 0.000000 0.000000 0.000000 0.000000 0.000000 0.000000 0.000000 0.000000 0.000000 0.000000 0.000000 0.000000 0.000000 
1.13447 282.267 1.177979 0.000731 0.000000 0.000000 4.000000 89.999490 -0.000009 10000.000000 815.388885 2.000000 -0.000098 5.399902 -0.000203 188.611086 15.379138 12.263866 0.000037 0.073581 -6105.399902 1942.653442 -0.531381 -0.000370 0.340606 89.999475 2201.472900 0.015166 0.015168 0.000663 0.000663 0.000000 0.000000 0.000000 0.000000 0.000000 0.000000 0.000000 0.000000 0.000000 0.000000 0.000000 0.000000 0.000000 0.000000 0.000000 0.000000 0.000000 0.000000 0.000000 0.000000 0.000000 
1.15113 282.283 1.160095 0.000720 0.000000 0.000000 4.000000 89.999559 -0.000008 10000.000000 814.121535 2.000000 -0.000098 5.399902 -0.000203 188.526899 15.348381 12.282965 0.000036 0.072418 -6105.399902 1942.858032 -0.531368 -0.000370 0.333438 89.999544 2200.467773 0.014958 0.014960 0.000654 0.000655 0.000000 0.000000 0.000000 0.000000 0.000000 0.000000 0.000000 0.000000 0.000000 0.000000 0.000000 0.000000 0.000000 0.000000 0.000000 0.000000 0.000000 0.000000 0.000000 0.000000 0.000000 
1.16783 282.3 1.142936 0.000705 0.000000 0.000000 4.000000 89.999620 -0.000007 10000.000000 812.876204 2.000000 -0.000098 5.399902 -0.000203 188.443079 15.318089 12.301790 0.000033 0.071167 -6105.399902 1943.062988 -0.531350 -0.000367 0.325911 89.999605 2198.446533 0.014765 0.014766 0.000647 0.000648 0.000000 0.000000 0.000000 0.000000 0.000000 0.000000 0.000000 0.000000 0.000000 0.000000 0.000000 0.000000 0.000000 0.000000 0.000000 0.000000 0.000000 0.000000 0.000000 0.000000 0.000000 
1.1845 282.317 1.126508 0.000683 0.000000 0.000000 4.000000 89.999681 -0.000006 10000.000000 811.652268 2.000000 -0.000098 5.399902 -0.000203 188.359381 15.288232 12.320350 0.000031 0.069831 -6105.399902 1943.268066 -0.531328 -0.000361 0.318091 89.999667 2198.053711 0.014573 0.014574 0.000639 0.000640 0.000000 0.000000 0.000000 0.000000 0.000000 0.000000 0.000000 0.000000 0.000000 0.000000 0.000000 0.000000 0.000000 0.000000 0.000000 0.000000 0.000000 0.000000 0.000000 0.000000 0.000000 
1.2012 282.333 1.110878 0.000661 0.000000 0.000000 4.000000 89.999743 -0.000004 10000.000000 810.448048 2.000000 -0.000098 5.399902 -0.000203 188.276173 15.258806 12.338664 0.000029 0.068417 -6105.399902 1943.473633 -0.531302 -0.000353 0.310044 89.999728 2197.881592 0.014404 0.014406 0.000632 0.000634 0.000000 0.000000 0.000000 0.000000 0.000000 0.000000 0.000000 0.000000 0.000000 0.000000 0.000000 0.000000 0.000000 0.000000 0.000000 0.000000 0.000000 0.000000 0.000000 0.000000 0.000000 
1.21787 282.35 1.096804 0.000639 0.000000 0.000000 4.000000 89.999804 -0.000003 10000.000000 809.261198 2.000000 -0.000098 5.399902 -0.000203 188.193210 15.229746 12.356769 0.000026 0.066933 -6105.399902 1943.679443 -0.531273 -0.000343 0.301842 89.999789 2196.640137 0.014257 0.014258 0.000626 0.000628 0.000000 0.000000 0.000000 0.000000 0.000000 0.000000 0.000000 0.000000 0.000000 0.000000 0.000000 0.000000 0.000000 0.000000 0.000000 0.000000 0.000000 0.000000 0.000000 0.000000 0.000000 
1.23457 282.367 1.083649 0.000613 0.000000 0.000000 4.000000 89.999859 -0.000002 10000.000000 808.092204 2.000000 -0.000098 5.399902 -0.000046 188.110491 15.201062 12.374653 0.000024 0.065386 -6105.399902 1943.885498 -0.531241 -0.000330 0.293553 89.999844 2191.627686 0.014068 0.014070 0.000620 0.000621 0.000000 0.000000 0.000000 0.000000 0.000000 0.000000 0.000000 0.000000 0.000000 0.000000 0.000000 0.000000 0.000000 0.000000 0.000000 0.000000 0.000000 0.000000 0.000000 0.000000 0.000000 
1.25123 282.383 1.068188 0.000584 0.000000 0.000000 4.000000 89.999914 -0.000002 10000.000000 806.946641 2.000000 -0.000098 5.399902 -0.000046 188.028140 15.172868 12.392229 0.000021 0.063774 -6105.399902 1944.091919 -0.531208 -0.000316 0.285219 89.999899 2185.215332 0.013820 0.013821 0.000610 0.000612 0.000000 0.000000 0.000000 0.000000 0.000000 0.000000 0.000000 0.000000 0.000000 0.000000 0.000000 0.000000 0.000000 0.000000 0.000000 0.000000 0.000000 0.000000 0.000000 0.000000 0.000000 
1.26793 282.4 1.048234 0.000551 0.000000 0.000000 4.000000 89.999968 -0.000001 10000.000000 805.830640 2.000000 -0.000098 5.399902 -0.000046 187.946034 15.145267 12.409400 0.000019 0.062091 -6105.399902 1944.298584 -0.531172 -0.000300 0.276851 89.999953 2177.711914 0.013504 0.013505 0.000597 0.000598 0.000000 0.000000 0.000000 0.000000 0.000000 0.000000 0.000000 0.000000 0.000000 0.000000 0.000000 0.000000 0.000000 0.000000 0.000000 0.000000 0.000000 0.000000 0.000000 0.000000 0.000000 
1.2846 282.417 1.023455 0.000519 0.000000 0.000000 4.000000 90.000016 0.000000 10000.000000 804.748169 2.000000 -0.000098 5.399902 -0.000046 187.864172 15.118335 12.426102 0.000017 0.060334 -6105.399902 1944.505493 -0.531137 -0.000284 0.268435 90.000001 2174.937256 0.013185 0.013186 0.000582 0.000584 0.000000 0.000000 0.000000 0.000000 0.000000 0.000000 0.000000 0.000000 0.000000 0.000000 0.000000 0.000000 0.000000 0.000000 0.000000 0.000000 0.000000 0.000000 0.000000 0.000000 0.000000 
1.3013 282.433 0.997165 0.000487 0.000000 0.000000 4.000000 90.000064 0.000001 10000.000000 803.697060 2.000000 -0.000098 5.399902 -0.000046 187.782678 15.092039 12.442362 0.000014 0.058507 -6105.399902 1944.712769 -0.531102 -0.000266 0.259962 90.000049 2166.462646 0.012875 0.012875 0.000568 0.000569 0.000000 0.000000 0.000000 0.000000 0.000000 0.000000 0.000000 0.000000 0.000000 0.000000 0.000000 0.000000 0.000000 0.000000 0.000000 0.000000 0.000000 0.000000 0.000000 0.000000 0.000000 
1.31797 282.45 0.970065 0.000451 0.000000 0.000000 4.000000 90.000105 0.000002 10000.000000 802.678617 2.000000 -0.000098 5.399902 -0.000046 187.701428 15.066392 12.458158 0.000012 0.056611 -6105.399902 1944.920288 -0.531069 -0.000247 0.251427 90.000090 2162.098633 0.012557 0.012557 0.000553 0.000555 0.000000 0.000000 0.000000 0.000000 0.000000 0.000000 0.000000 0.000000 0.000000 0.000000 0.000000 0.000000 0.000000 0.000000 0.000000 0.000000 0.000000 0.000000 0.000000 0.000000 0.000000 
1.33467 282.467 0.942756 0.000413 0.000000 0.000000 4.000000 90.000146 0.000003 10000.000000 801.692048 2.000000 -0.000098 5.399902 -0.000046 187.620424 15.041380 12.473498 0.000010 0.054654 -6105.399902 1945.128052 -0.531038 -0.000228 0.242828 90.000131 2153.495605 0.012236 0.012237 0.000538 0.000540 0.000000 0.000000 0.000000 0.000000 0.000000 0.000000 0.000000 0.000000 0.000000 0.000000 0.000000 0.000000 0.000000 0.000000 0.000000 0.000000 0.000000 0.000000 0.000000 0.000000 0.000000 
1.35133 282.483 0.914861 0.000371 0.000000 0.000000 4.000000 90.000180 0.000003 10000.000000 800.738291 2.000000 -0.000098 5.399902 -0.000046 187.539664 15.017019 12.488364 0.000008 0.052639 -6105.399902 1945.336060 -0.531009 -0.000208 0.234163 90.000165 2148.120361 0.011916 0.011916 0.000524 0.000525 0.000000 0.000000 0.000000 0.000000 0.000000 0.000000 0.000000 0.000000 0.000000 0.000000 0.000000 0.000000 0.000000 0.000000 0.000000 0.000000 0.000000 0.000000 0.000000 0.000000 0.000000 
1.36803 282.5 0.886702 0.000327 0.000000 0.000000 4.000000 90.000214 0.000004 10000.000000 799.816448 2.000000 -0.000098 5.399902 -0.000046 187.459150 14.993291 12.502767 0.000005 0.050576 -6105.399902 1945.544312 -0.530984 -0.000188 0.225433 90.000199 2137.070068 0.011648 0.011649 0.000509 0.000511 0.000000 0.000000 0.000000 0.000000 0.000000 0.000000 0.000000 0.000000 0.000000 0.000000 0.000000 0.000000 0.000000 0.000000 0.000000 0.000000 0.000000 0.000000 0.000000 0.000000 0.000000 
1.3847 282.517 0.866318 0.000278 0.000000 0.000000 4.000000 90.000242 0.000004 10000.000000 798.906404 2.000000 -0.000098 5.399902 0.000111 187.378880 14.969819 12.517017 0.000003 0.048502 -6105.399902 1945.752808 -0.530963 -0.000168 0.216701 90.000227 2120.600830 0.011670 0.011670 0.000507 0.000509 0.000000 0.000000 0.000000 0.000000 0.000000 0.000000 0.000000 0.000000 0.000000 0.000000 0.000000 0.000000 0.000000 0.000000 0.000000 0.000000 0.000000 0.000000 0.000000 0.000000 0.000000 
1.4014 282.533 0.862104 0.000231 0.000000 0.000000 4.000000 90.000262 0.000005 10000.000000 797.988590 2.000000 -0.000098 5.399902 0.000111 187.298856 14.946235 12.531422 0.000001 0.046467 -6105.399902 1945.961548 -0.530946 -0.000147 0.208135 90.000247 2096.109131 0.011782 0.011782 0.000513 0.000515 0.000000 0.000000 0.000000 0.000000 0.000000 0.000000 0.000000 0.000000 0.000000 0.000000 0.000000 0.000000 0.000000 0.000000 0.000000 0.000000 0.000000 0.000000 0.000000 0.000000 0.000000 
1.41807 282.55 0.867446 0.000190 0.000000 0.000000 4.000000 90.000289 0.000005 10000.000000 797.062704 2.000000 -0.000098 5.399902 0.000111 187.219076 14.922534 12.545985 -0.000001 0.044500 -6105.399902 1946.170532 -0.530932 -0.000126 0.199907 90.000274 2065.923340 0.011844 0.011844 0.000519 0.000520 0.000000 0.000000 0.000000 0.000000 0.000000 0.000000 0.000000 0.000000 0.000000 0.000000 0.000000 0.000000 0.000000 0.000000 0.000000 0.000000 0.000000 0.000000 0.000000 0.000000 0.000000 
1.43477 282.567 0.870869 0.000149 0.000000 0.000000 4.000000 90.000303 0.000005 10000.000000 796.141926 2.000000 -0.000098 5.399902 0.000111 187.139542 14.898964 12.560502 -0.000003 0.042604 -6105.399902 1946.379761 -0.530922 -0.000105 0.192125 90.000288 2029.556396 0.011692 0.011692 0.000516 0.000518 0.000000 0.000000 0.000000 0.000000 0.000000 0.000000 0.000000 0.000000 0.000000 0.000000 0.000000 0.000000 0.000000 0.000000 0.000000 0.000000 0.000000 0.000000 0.000000 0.000000 0.000000 
1.45143 282.583 0.861123 0.000107 0.000000 0.000000 4.000000 90.000317 0.000006 10000.000000 795.247819 2.000000 -0.000098 5.399902 0.000111 187.060252 14.875926 12.574631 -0.000005 0.040754 -6105.399902 1946.589233 -0.530916 -0.000084 0.184780 90.000302 1996.144531 0.011358 0.011358 0.000503 0.000504 0.000000 0.000000 0.000000 0.000000 0.000000 0.000000 0.000000 0.000000 0.000000 0.000000 0.000000 0.000000 0.000000 0.000000 0.000000 0.000000 0.000000 0.000000 0.000000 0.000000 0.000000 
1.46813 282.6 0.837384 0.000069 0.000000 0.000000 4.000000 90.000330 0.000006 10000.000000 794.391405 2.000000 -0.000098 5.399902 0.000111 186.981207 14.853626 12.588193 -0.000006 0.038927 -6105.399902 1946.798950 -0.530915 -0.000063 0.177786 90.000315 1965.362305 0.010955 0.010955 0.000483 0.000484 0.000000 0.000000 0.000000 0.000000 0.000000 0.000000 0.000000 0.000000 0.000000 0.000000 0.000000 0.000000 0.000000 0.000000 0.000000 0.000000 0.000000 0.000000 0.000000 0.000000 0.000000 
1.4848 282.617 0.805289 0.000037 0.000000 0.000000 4.000000 90.000337 0.000006 10000.000000 793.575449 2.000000 -0.000098 5.399902 0.000111 186.902408 14.832116 12.601142 -0.000008 0.037112 -6105.399902 1947.008911 -0.530920 -0.000043 0.171035 90.000322 1936.349854 0.010552 0.010552 0.000462 0.000463 0.000000 0.000000 0.000000 0.000000 0.000000 0.000000 0.000000 0.000000 0.000000 0.000000 0.000000 0.000000 0.000000 0.000000 0.000000 0.000000 0.000000 0.000000 0.000000 0.000000 0.000000 
1.5015 282.617 0.805289 0.000037 0.000000 0.000000 4.000000 90.000337 0.000006 10000.000000 793.575449 2.000000 -0.000098 5.399902 0.000111 186.902408 14.832116 12.601142 -0.000008 0.037112 -6105.399902 1947.008911 -0.530920 -0.000043 0.171035 90.000322 1936.349854 0.010552 0.010552 0.000462 0.000463 0.000000 0.000000 0.000000 0.000000 0.000000 0.000000 0.000000 0.000000 0.000000 0.000000 0.000000 0.000000 0.000000 0.000000 0.000000 0.000000 0.000000 0.000000 0.000000 0.000000 0.000000 
1.51817 282.65 0.733688 -0.000023 0.000000 0.000000 4.000000 90.000344 0.000006 10000.000000 792.063532 2.000000 -0.000098 5.399902 0.000111 186.745300 14.791414 12.625205 -0.000010 0.033490 -6105.399902 1947.429321 -0.530950 -0.000005 0.157878 90.000329 1883.344116 0.009761 0.009760 0.000422 0.000423 0.000000 0.000000 0.000000 0.000000 0.000000 0.000000 0.000000 0.000000 0.000000 0.000000 0.000000 0.000000 0.000000 0.000000 0.000000 0.000000 0.000000 0.000000 0.000000 0.000000 0.000000 
1.53487 282.667 0.698291 -0.000051 0.000000 0.000000 4.000000 90.000337 0.000006 10000.000000 791.364376 2.000000 -0.000098 5.399902 0.000111 186.666991 14.772161 12.636364 -0.000011 0.031684 -6105.399902 1947.639771 -0.530975 0.000012 0.151314 90.000322 1860.786133 0.009399 0.009399 0.000403 0.000404 0.000000 0.000000 0.000000 0.000000 0.000000 0.000000 0.000000 0.000000 0.000000 0.000000 0.000000 0.000000 0.000000 0.000000 0.000000 0.000000 0.000000 0.000000 0.000000 0.000000 0.000000 
1.55153 282.683 0.664960 -0.000078 0.000000 0.000000 4.000000 90.000337 0.000006 10000.000000 790.698888 2.000000 -0.000098 5.399902 0.000268 186.588928 14.753566 12.647004 -0.000012 0.029887 -6105.399902 1947.850464 -0.531007 0.000028 0.144691 90.000322 1841.489380 0.009081 0.009080 0.000387 0.000388 0.000000 0.000000 0.000000 0.000000 0.000000 0.000000 0.000000 0.000000 0.000000 0.000000 0.000000 0.000000 0.000000 0.000000 0.000000 0.000000 0.000000 0.000000 0.000000 0.000000 0.000000 
1.56823 282.7 0.635005 -0.000103 0.000000 0.000000 4.000000 90.000330 0.000006 10000.000000 790.062376 2.000000 -0.000098 5.399902 0.000268 186.511109 14.735541 12.657198 -0.000012 0.028109 -6105.399902 1948.061401 -0.531043 0.000042 0.137991 90.000315 1825.389404 0.008813 0.008812 0.000374 0.000374 0.000000 0.000000 0.000000 0.000000 0.000000 0.000000 0.000000 0.000000 0.000000 0.000000 0.000000 0.000000 0.000000 0.000000 0.000000 0.000000 0.000000 0.000000 0.000000 0.000000 0.000000 
1.5849 282.717 0.609413 -0.000124 0.000000 0.000000 4.000000 90.000317 0.000006 10000.000000 789.449295 2.000000 -0.000098 5.399902 0.000268 186.433413 14.717973 12.667031 -0.000012 0.026362 -6105.399902 1948.272461 -0.531085 0.000055 0.131224 90.000302 1812.323242 0.008604 0.008604 0.000363 0.000364 0.000000 0.000000 0.000000 0.000000 0.000000 0.000000 0.000000 0.000000 0.000000 0.000000 0.000000 0.000000 0.000000 0.000000 0.000000 0.000000 0.000000 0.000000 0.000000 0.000000 0.000000 
1.6016 282.733 0.588573 -0.000144 0.000000 0.000000 4.000000 90.000310 0.000005 10000.000000 788.854731 2.000000 -0.000098 5.399902 0.000268 186.355841 14.700769 12.676581 -0.000013 0.024659 -6105.399902 1948.483643 -0.531131 0.000067 0.124425 90.000295 1799.815430 0.008432 0.008431 0.000355 0.000355 0.000000 0.000000 0.000000 0.000000 0.000000 0.000000 0.000000 0.000000 0.000000 0.000000 0.000000 0.000000 0.000000 0.000000 0.000000 0.000000 0.000000 0.000000 0.000000 0.000000 0.000000 
1.61827 282.75 0.571622 -0.000163 0.000000 0.000000 4.000000 90.000296 0.000005 10000.000000 788.275639 2.000000 -0.000098 5.399902 0.000268 186.278391 14.683872 12.685897 -0.000013 0.023010 -6105.399902 1948.694946 -0.531181 0.000077 0.117639 90.000281 1788.973022 0.008293 0.008293 0.000349 0.000349 0.000000 0.000000 0.000000 0.000000 0.000000 0.000000 0.000000 0.000000 0.000000 0.000000 0.000000 0.000000 0.000000 0.000000 0.000000 0.000000 0.000000 0.000000 0.000000 0.000000 0.000000 
1.63497 282.767 0.557796 -0.000179 0.000000 0.000000 4.000000 90.000283 0.000005 10000.000000 787.709349 2.000000 -0.000098 5.399902 0.000268 186.201187 14.667242 12.695020 -0.000013 0.021424 -6105.399902 1948.906494 -0.531232 0.000086 0.110918 90.000268 1778.468750 0.008172 0.008172 0.000344 0.000343 0.000000 0.000000 0.000000 0.000000 0.000000 0.000000 0.000000 0.000000 0.000000 0.000000 0.000000 0.000000 0.000000 0.000000 0.000000 0.000000 0.000000 0.000000 0.000000 0.000000 0.000000 
1.65163 282.783 0.546159 -0.000194 0.000000 0.000000 4.000000 90.000262 0.000005 10000.000000 787.154273 2.000000 -0.000098 5.399902 0.000268 186.124105 14.650838 12.703975 -0.000013 0.019907 -6105.399902 1949.118164 -0.531286 0.000094 0.104315 90.000247 1768.754517 0.008068 0.008068 0.000339 0.000338 0.000000 0.000000 0.000000 0.000000 0.000000 0.000000 0.000000 0.000000 0.000000 0.000000 0.000000 0.000000 0.000000 0.000000 0.000000 0.000000 0.000000 0.000000 0.000000 0.000000 0.000000 
1.66833 282.8 0.536076 -0.000207 0.000000 0.000000 4.000000 90.000248 0.000004 10000.000000 786.609302 2.000000 -0.000098 5.399902 0.000268 186.047147 14.634642 12.712778 -0.000012 0.018463 -6105.399902 1949.329956 -0.531340 0.000101 0.097876 90.000233 1759.299927 0.007970 0.007970 0.000334 0.000334 0.000000 0.000000 0.000000 0.000000 0.000000 0.000000 0.000000 0.000000 0.000000 0.000000 0.000000 0.000000 0.000000 0.000000 0.000000 0.000000 0.000000 0.000000 0.000000 0.000000 0.000000 
1.685 282.817 0.526929 -0.000217 0.000000 0.000000 4.000000 90.000228 0.000004 10000.000000 786.073806 2.000000 -0.000098 5.399902 0.000268 185.970311 14.618639 12.721440 -0.000012 0.017094 -6105.399902 1949.541870 -0.531394 0.000106 0.091640 90.000213 1750.149536 0.007879 0.007879 0.000330 0.000329 0.000000 0.000000 0.000000 0.000000 0.000000 0.000000 0.000000 0.000000 0.000000 0.000000 0.000000 0.000000 0.000000 0.000000 0.000000 0.000000 0.000000 0.000000 0.000000 0.000000 0.000000 
1.7017 282.833 0.515951 -0.000224 0.000000 0.000000 4.000000 90.000207 0.000004 10000.000000 785.555987 2.000000 -0.000098 5.399902 0.000268 185.893721 14.602993 12.729828 -0.000012 0.015788 -6105.399902 1949.754028 -0.531448 0.000110 0.085621 90.000192 1673.413086 0.007494 0.007494 0.000319 0.000318 0.000000 0.000000 0.000000 0.000000 0.000000 0.000000 0.000000 0.000000 0.000000 0.000000 0.000000 0.000000 0.000000 0.000000 0.000000 0.000000 0.000000 0.000000 0.000000 0.000000 0.000000 
1.71837 282.85 0.480849 -0.000227 0.000000 0.000000 4.000000 90.000194 0.000003 10000.000000 785.104212 2.000000 -0.000098 5.399902 0.000268 185.817131 14.588581 12.737155 -0.000011 0.014457 -6105.399902 1949.966187 -0.531502 0.000114 0.079644 90.000179 1584.164307 0.006623 0.006622 0.000284 0.000283 0.000000 0.000000 0.000000 0.000000 0.000000 0.000000 0.000000 0.000000 0.000000 0.000000 0.000000 0.000000 0.000000 0.000000 0.000000 0.000000 0.000000 0.000000 0.000000 0.000000 0.000000 
1.73507 282.867 0.411144 -0.000231 0.000000 0.000000 4.000000 90.000173 0.000003 10000.000000 784.755311 2.000000 -0.000098 5.399902 0.000425 185.740787 14.576107 12.742819 -0.000011 0.013006 -6105.399902 1950.178589 -0.531556 0.000116 0.073348 90.000158 1484.236206 0.005335 0.005335 0.000234 0.000232 0.000000 0.000000 0.000000 0.000000 0.000000 0.000000 0.000000 0.000000 0.000000 0.000000 0.000000 0.000000 0.000000 0.000000 0.000000 0.000000 0.000000 0.000000 0.000000 0.000000 0.000000 
1.75173 282.883 0.302936 -0.000234 0.000000 0.000000 4.000000 90.000153 0.000003 10000.000000 784.550334 2.000000 -0.000098 5.399902 0.000425 185.664443 14.566310 12.746150 -0.000011 0.011315 -6105.399902 1950.390991 -0.531612 0.000118 0.066218 90.000138 1391.961914 0.003760 0.003760 0.000183 0.000180 0.000000 0.000000 0.000000 0.000000 0.000000 0.000000 0.000000 0.000000 0.000000 0.000000 0.000000 0.000000 0.000000 0.000000 0.000000 0.000000 0.000000 0.000000 0.000000 0.000000 0.000000 
1.76843 282.9 0.151419 -0.000233 0.000000 0.000000 4.000000 90.000132 0.000002 10000.000000 784.531609 2.000000 -0.000098 5.399902 0.000425 185.601407 14.561017 12.746456 -0.000010 0.009138 -6105.399902 1950.616699 -0.531674 0.000118 0.057057 90.000117 1320.370850 0.001158 0.001158 0.000660 0.000660 0.000000 0.000000 0.000000 0.000000 0.000000 0.000000 0.000000 0.000000 0.000000 0.000000 0.000000 0.000000 0.000000 0.000000 0.000000 0.000000 0.000000 0.000000 0.000000 0.000000 0.000000 
1.7851 282.917 -0.079655 -0.000220 0.000000 0.000000 4.000000 90.000119 0.000002 10000.000000 784.860866 2.000000 -0.000098 5.399902 0.000425 185.511759 14.560092 12.741111 -0.000010 0.006739 -6105.399902 1950.815796 -0.531730 0.000118 0.046485 90.000104 1293.463745 0.001538 0.001538 0.002230 0.002230 0.000000 0.000000 0.000000 0.000000 0.000000 0.000000 0.000000 0.000000 0.000000 0.000000 0.000000 0.000000 0.000000 0.000000 0.000000 0.000000 0.000000 0.000000 0.000000 0.000000 0.000000 
1.8018 282.933 -0.413674 -0.000204 0.000000 0.000000 4.000000 90.000098 0.000002 10000.000000 785.588004 2.000000 -0.000098 5.399902 0.000425 185.435297 14.567574 12.729319 -0.000009 0.003575 -6105.399902 1951.028076 -0.531789 0.000116 0.031267 90.000083 1286.557129 0.003692 0.003691 0.003912 0.003912 0.000000 0.000000 0.000000 0.000000 0.000000 0.000000 0.000000 0.000000 0.000000 0.000000 0.000000 0.000000 0.000000 0.000000 0.000000 0.000000 0.000000 0.000000 0.000000 0.000000 0.000000 
1.81847 282.95 -0.746567 -0.000191 0.000000 0.000000 4.000000 90.000078 0.000001 10000.000000 786.633378 2.000000 -0.000098 5.399902 0.000425 185.358591 14.580925 12.712402 -0.000008 -0.000251 -6105.399902 1951.240112 -0.531840 0.000113 0.011142 90.000063 1292.289795 0.005325 0.005325 0.005495 0.005494 0.000000 0.000000 0.000000 0.000000 0.000000 0.000000 0.000000 0.000000 0.000000 0.000000 0.000000 0.000000 0.000000 0.000000 0.000000 0.000000 0.000000 0.000000 0.000000 0.000000 0.000000 
1.83517 282.95 -0.746567 -0.000191 0.000000 0.000000 4.000000 90.000078 0.000001 10000.000000 786.633378 2.000000 -0.000098 5.399902 0.000425 185.358591 14.580925 12.712402 -0.000008 -0.000251 -6105.399902 1951.240112 -0.531840 0.000113 0.011142 90.000063 1292.289795 0.005325 0.005325 0.005495 0.005494 0.000000 0.000000 0.000000 0.000000 0.000000 0.000000 0.000000 0.000000 0.000000 0.000000 0.000000 0.000000 0.000000 0.000000 0.000000 0.000000 0.000000 0.000000 0.000000 0.000000 0.000000 
1.85183 282.983 -1.220142 -0.000173 0.000000 0.000000 4.000000 90.000043 0.000001 10000.000000 789.396698 2.000000 -0.000098 5.399902 0.000425 185.217390 14.621000 12.667898 -0.000006 -0.010109 -6105.399902 1951.676392 -0.531890 0.000102 -0.046412 90.000029 1317.406494 0.007015 0.007015 0.007665 0.007665 0.000000 0.000000 0.000000 0.000000 0.000000 0.000000 0.000000 0.000000 0.000000 0.000000 0.000000 0.000000 0.000000 0.000000 0.000000 0.000000 0.000000 0.000000 0.000000 0.000000 0.000000 
1.86853 283 -1.386395 -0.000165 0.000000 0.000000 4.000000 90.000023 0.000000 10000.000000 790.967646 2.000000 -0.000098 5.399902 0.000425 185.139467 14.643933 12.642733 -0.000004 -0.015730 -6105.399902 1951.887207 -0.531871 0.000096 -0.081359 90.000008 1324.473022 0.006897 0.006897 0.008330 0.008329 0.000000 0.000000 0.000000 0.000000 0.000000 0.000000 0.000000 0.000000 0.000000 0.000000 0.000000 0.000000 0.000000 0.000000 0.000000 0.000000 0.000000 0.000000 0.000000 0.000000 0.000000 
1.8852 283.017 -1.462107 -0.000158 0.000000 0.000000 4.000000 90.000009 0.000000 10000.000000 792.432138 2.000000 -0.000098 5.399902 0.000425 185.048117 14.663807 12.619360 -0.000004 -0.021362 -6105.399902 1952.084595 -0.531819 0.000090 -0.117371 89.999994 1314.361084 0.006280 0.006280 0.008589 0.008588 0.000000 0.000000 0.000000 0.000000 0.000000 0.000000 0.000000 0.000000 0.000000 0.000000 0.000000 0.000000 0.000000 0.000000 0.000000 0.000000 0.000000 0.000000 0.000000 0.000000 0.000000 
1.9019 283.033 -1.448894 -0.000149 0.000000 0.000000 4.000000 89.999996 -0.000000 10000.000000 793.913544 2.000000 -0.000098 5.399902 0.000425 184.969585 14.684986 12.595801 -0.000003 -0.027661 -6105.399902 1952.294800 -0.531723 0.000083 -0.157983 89.999981 1297.919189 0.006028 0.006028 0.008435 0.008434 0.000000 0.000000 0.000000 0.000000 0.000000 0.000000 0.000000 0.000000 0.000000 0.000000 0.000000 0.000000 0.000000 0.000000 0.000000 0.000000 0.000000 0.000000 0.000000 0.000000 0.000000 
1.91857 283.05 -1.447255 -0.000141 0.000000 0.000000 4.000000 89.999982 -0.000000 10000.000000 795.465485 2.000000 -0.000098 5.399902 0.000425 184.890566 14.707406 12.571213 -0.000002 -0.034317 -6105.399902 1952.504517 -0.531584 0.000076 -0.200071 89.999967 1292.044678 0.006914 0.006914 0.009139 0.009139 0.000000 0.000000 0.000000 0.000000 0.000000 0.000000 0.000000 0.000000 0.000000 0.000000 0.000000 0.000000 0.000000 0.000000 0.000000 0.000000 0.000000 0.000000 0.000000 0.000000 0.000000 
1.93527 283.067 -1.509334 -0.000131 0.000000 0.000000 4.000000 89.999968 -0.000001 10000.000000 797.120024 2.000000 -0.000098 5.399902 0.000425 184.811060 14.731660 12.545099 -0.000001 -0.041357 -6105.399902 1952.713745 -0.531404 0.000069 -0.243400 89.999953 1288.538208 0.006905 0.006905 0.009423 0.009422 0.000000 0.000000 0.000000 0.000000 0.000000 0.000000 0.000000 0.000000 0.000000 0.000000 0.000000 0.000000 0.000000 0.000000 0.000000 0.000000 0.000000 0.000000 0.000000 0.000000 0.000000 
1.95193 283.083 -1.565592 -0.000121 0.000000 0.000000 4.000000 89.999955 -0.000001 10000.000000 798.851687 2.000000 -0.000098 5.399902 0.000425 184.731189 14.757282 12.517881 0.000000 -0.048720 -6105.399902 1952.922607 -0.531187 0.000063 -0.287466 89.999940 1279.643921 0.008122 0.008122 0.011012 0.011012 0.000000 0.000000 0.000000 0.000000 0.000000 0.000000 0.000000 0.000000 0.000000 0.000000 0.000000 0.000000 0.000000 0.000000 0.000000 0.000000 0.000000 0.000000 0.000000 0.000000 0.000000 
1.96863 283.1 -1.721040 -0.000110 0.000000 0.000000 4.000000 89.999941 -0.000001 10000.000000 800.951754 2.000000 -0.000098 5.399902 0.000425 184.663892 14.790687 12.485026 0.000001 -0.057016 -6105.399902 1953.144043 -0.530919 0.000056 -0.335437 89.999926 1271.541138 0.008579 0.008579 0.012062 0.012061 0.000000 0.000000 0.000000 0.000000 0.000000 0.000000 0.000000 0.000000 0.000000 0.000000 0.000000 0.000000 0.000000 0.000000 0.000000 0.000000 0.000000 0.000000 0.000000 0.000000 0.000000 
1.9853 283.117 -1.838314 -0.000099 0.000000 0.000000 4.000000 89.999934 -0.000001 10000.000000 802.891148 2.000000 -0.000098 5.399902 0.000425 184.569984 14.818961 12.454833 0.000002 -0.064707 -6105.399902 1953.338867 -0.530656 0.000051 -0.378526 89.999919 1264.504028 0.008752 0.008752 0.012587 0.012586 0.000000 0.000000 0.000000 0.000000 0.000000 0.000000 0.000000 0.000000 0.000000 0.000000 0.000000 0.000000 0.000000 0.000000 0.000000 0.000000 0.000000 0.000000 0.000000 0.000000 0.000000 
2.002 283.133 -1.914266 -0.000088 0.000000 0.000000 4.000000 89.999921 -0.000001 10000.000000 805.006972 2.000000 -0.000098 5.399902 0.000425 184.488529 14.851455 12.422051 0.000003 -0.073228 -6105.399902 1953.546143 -0.530352 0.000045 -0.424777 89.999906 1258.130005 0.009047 0.009047 0.013083 0.013082 0.000000 0.000000 0.000000 0.000000 0.000000 0.000000 0.000000 0.000000 0.000000 0.000000 0.000000 0.000000 0.000000 0.000000 0.000000 0.000000 0.000000 0.000000 0.000000 0.000000 0.000000 
