VidTime SimTime LonAccel LatAccel Throttle Brake Gear Heading HeadingError HeadwayDistance HeadwayTime Lane LaneOffset RoadOffset Steer TailwayDistance TailwayTime Velocity LatVelocity VertVelocity XPos YPos ZPos Roll Pitch Yaw EngineRPM SlipFR SlipFL SlipRR SlipRL User1 User2 User3 User4 User5 User6 User7 User8 User9 User10 User11 User12 User13 User14 User15 User16 User17 User18 User19 User20 User21 
0.0166666 194.867 3.639241 -0.193760 76.542259 0.442540 4.000000 91.663188 0.029033 10000.000000 1782.501305 -2.000000 -0.409303 -4.990697 -0.114602 10000.000000 1782.501305 5.611241 -0.006338 0.107808 -6104.990234 1894.753540 -0.529265 0.068962 1.176375 91.663172 2213.487305 0.052398 0.049862 0.001794 0.001858 0.000000 0.000000 0.000000 0.000000 0.000000 0.000000 0.000000 0.000000 0.000000 0.000000 0.000000 0.000000 0.000000 0.000000 0.000000 0.000000 0.000000 0.000000 0.000000 0.000000 0.000000 
0.0333667 194.883 3.618058 -0.205084 76.542259 0.442540 4.000000 91.656658 0.028919 10000.000000 1762.424571 -2.000000 -0.406373 -4.993627 -0.114602 10000.000000 1762.424571 5.675039 -0.009458 0.109799 -6104.993164 1894.853516 -0.529390 0.075991 1.175276 91.656643 2224.008545 0.052101 0.049457 0.001792 0.001843 0.000000 0.000000 0.000000 0.000000 0.000000 0.000000 0.000000 0.000000 0.000000 0.000000 0.000000 0.000000 0.000000 0.000000 0.000000 0.000000 0.000000 0.000000 0.000000 0.000000 0.000000 
0.0500333 194.9 3.600689 -0.213727 76.542259 0.442540 4.000000 91.649056 0.028786 10000.000000 1745.163514 -2.000000 -0.403931 -4.996069 -0.137057 10000.000000 1745.163514 5.731061 -0.012174 0.111510 -6104.995605 1894.942505 -0.529488 0.081876 1.173708 91.649041 2233.230957 0.051846 0.049120 0.001793 0.001833 0.000000 0.000000 0.000000 0.000000 0.000000 0.000000 0.000000 0.000000 0.000000 0.000000 0.000000 0.000000 0.000000 0.000000 0.000000 0.000000 0.000000 0.000000 0.000000 0.000000 0.000000 
0.0667333 194.917 3.583215 -0.222741 81.942818 0.300206 4.000000 91.639084 0.028612 10000.000000 1727.199794 -2.000000 -0.401489 -4.998511 -0.137057 10000.000000 1727.199794 5.790550 -0.014994 0.113275 -6104.998047 1895.038574 -0.529580 0.087808 1.171438 91.639069 2242.955566 0.051561 0.048768 0.001800 0.001824 0.000000 0.000000 0.000000 0.000000 0.000000 0.000000 0.000000 0.000000 0.000000 0.000000 0.000000 0.000000 0.000000 0.000000 0.000000 0.000000 0.000000 0.000000 0.000000 0.000000 0.000000 
0.0833999 194.933 3.566423 -0.230703 81.942818 0.300206 4.000000 91.627240 0.028406 10000.000000 1709.681009 -2.000000 -0.399047 -5.000953 -0.154488 10000.000000 1709.681009 5.849767 -0.017758 0.114985 -6105.000488 1895.135498 -0.529659 0.093333 1.168571 91.627225 2252.541504 0.051273 0.048445 0.001810 0.001818 0.000000 0.000000 0.000000 0.000000 0.000000 0.000000 0.000000 0.000000 0.000000 0.000000 0.000000 0.000000 0.000000 0.000000 0.000000 0.000000 0.000000 0.000000 0.000000 0.000000 0.000000 
0.1001 194.95 3.550025 -0.237080 81.942818 0.300206 4.000000 91.613587 0.028167 10000.000000 1692.590534 -2.000000 -0.396606 -5.003394 -0.166736 10000.000000 1692.590534 5.908719 -0.020384 0.116631 -6105.002930 1895.233521 -0.529726 0.098468 1.165128 91.613572 2261.986328 0.050964 0.048138 0.001824 0.001814 0.000000 0.000000 0.000000 0.000000 0.000000 0.000000 0.000000 0.000000 0.000000 0.000000 0.000000 0.000000 0.000000 0.000000 0.000000 0.000000 0.000000 0.000000 0.000000 0.000000 0.000000 
0.116767 194.967 3.533895 -0.241686 81.942818 0.300206 4.000000 91.598205 0.027899 10000.000000 1675.912955 -2.000000 -0.394164 -5.005836 -0.166736 10000.000000 1675.912955 5.967406 -0.022893 0.118198 -6105.005371 1895.332520 -0.529779 0.103164 1.161134 91.598190 2271.299805 0.050640 0.047826 0.001841 0.001812 0.000000 0.000000 0.000000 0.000000 0.000000 0.000000 0.000000 0.000000 0.000000 0.000000 0.000000 0.000000 0.000000 0.000000 0.000000 0.000000 0.000000 0.000000 0.000000 0.000000 0.000000 
0.133467 194.983 3.516885 -0.244391 83.720215 0.442540 4.000000 91.580078 0.027582 10000.000000 1658.629711 -2.000000 -0.391722 -5.008278 -0.172861 10000.000000 1658.629711 6.029473 -0.025361 0.119767 -6105.007813 1895.438721 -0.529821 0.107634 1.156319 91.580063 2281.066162 0.050278 0.047494 0.001863 0.001813 0.000000 0.000000 0.000000 0.000000 0.000000 0.000000 0.000000 0.000000 0.000000 0.000000 0.000000 0.000000 0.000000 0.000000 0.000000 0.000000 0.000000 0.000000 0.000000 0.000000 0.000000 
0.150133 195 3.501903 -0.245011 83.720215 0.442540 4.000000 91.562661 0.027278 10000.000000 1643.741131 -2.000000 -0.389768 -5.010232 -0.172861 10000.000000 1643.741131 6.083991 -0.027364 0.121058 -6105.009766 1895.533325 -0.529846 0.111071 1.151612 91.562646 2289.585205 0.049944 0.047200 0.001885 0.001815 0.000000 0.000000 0.000000 0.000000 0.000000 0.000000 0.000000 0.000000 0.000000 0.000000 0.000000 0.000000 0.000000 0.000000 0.000000 0.000000 0.000000 0.000000 0.000000 0.000000 0.000000 
0.166833 195.017 3.485847 -0.243289 83.720215 0.442540 4.000000 91.542737 0.026931 10000.000000 1628.221959 -2.000000 -0.387326 -5.012674 -0.173489 10000.000000 1628.221959 6.141884 -0.029275 0.122354 -6105.012207 1895.635254 -0.529862 0.114114 1.146146 91.542722 2298.580811 0.049594 0.046891 0.001911 0.001819 0.000000 0.000000 0.000000 0.000000 0.000000 0.000000 0.000000 0.000000 0.000000 0.000000 0.000000 0.000000 0.000000 0.000000 0.000000 0.000000 0.000000 0.000000 0.000000 0.000000 0.000000 
0.1835 195.033 3.468701 -0.238890 83.720215 0.442540 4.000000 91.520218 0.026538 10000.000000 1612.128601 -2.000000 -0.384884 -5.015116 -0.173489 10000.000000 1612.128601 6.203103 -0.031035 0.123640 -6105.014648 1895.744507 -0.529866 0.116462 1.139857 91.520203 2308.045654 0.049237 0.046570 0.001941 0.001826 0.000000 0.000000 0.000000 0.000000 0.000000 0.000000 0.000000 0.000000 0.000000 0.000000 0.000000 0.000000 0.000000 0.000000 0.000000 0.000000 0.000000 0.000000 0.000000 0.000000 0.000000 
0.2002 195.05 3.453712 -0.233311 83.686035 0.442540 4.000000 91.499338 0.026173 10000.000000 1598.254592 -2.000000 -0.382931 -5.017069 -0.171290 10000.000000 1598.254592 6.256875 -0.032346 0.124689 -6105.016602 1895.841797 -0.529859 0.117642 1.133918 91.499323 2316.324463 0.048910 0.046295 0.001969 0.001834 0.000000 0.000000 0.000000 0.000000 0.000000 0.000000 0.000000 0.000000 0.000000 0.000000 0.000000 0.000000 0.000000 0.000000 0.000000 0.000000 0.000000 0.000000 0.000000 0.000000 0.000000 
0.216867 195.067 3.437917 -0.225829 83.686035 0.442540 4.000000 91.476198 0.025769 10000.000000 1583.781202 -2.000000 -0.380489 -5.019511 -0.171290 10000.000000 1583.781202 6.313981 -0.033493 0.125712 -6105.019043 1895.946655 -0.529840 0.117870 1.127206 91.476182 2325.083496 0.048544 0.046013 0.001999 0.001843 0.000000 0.000000 0.000000 0.000000 0.000000 0.000000 0.000000 0.000000 0.000000 0.000000 0.000000 0.000000 0.000000 0.000000 0.000000 0.000000 0.000000 0.000000 0.000000 0.000000 0.000000 
0.233567 195.083 3.422283 -0.217708 83.617676 0.300206 4.000000 91.452333 0.025353 10000.000000 1569.632676 -2.000000 -0.378535 -5.021465 -0.168307 10000.000000 1569.632676 6.370830 -0.034398 0.126631 -6105.020996 1896.052368 -0.529812 0.116986 1.120135 91.452318 2333.767578 0.048167 0.045739 0.002030 0.001854 0.000000 0.000000 0.000000 0.000000 0.000000 0.000000 0.000000 0.000000 0.000000 0.000000 0.000000 0.000000 0.000000 0.000000 0.000000 0.000000 0.000000 0.000000 0.000000 0.000000 0.000000 
0.250233 195.1 3.406801 -0.209171 83.617676 0.300206 4.000000 91.427922 0.024927 10000.000000 1555.797947 -2.000000 -0.376582 -5.023418 -0.168307 10000.000000 1555.797947 6.427425 -0.035078 0.127441 -6105.022949 1896.158936 -0.529774 0.114994 1.112738 91.427907 2342.375488 0.047784 0.045475 0.002058 0.001864 0.000000 0.000000 0.000000 0.000000 0.000000 0.000000 0.000000 0.000000 0.000000 0.000000 0.000000 0.000000 0.000000 0.000000 0.000000 0.000000 0.000000 0.000000 0.000000 0.000000 0.000000 
0.266933 195.117 3.391458 -0.201140 83.617676 0.300206 4.000000 91.403128 0.024494 10000.000000 1542.266663 -2.000000 -0.374140 -5.025860 -0.166736 10000.000000 1542.266663 6.483767 -0.035569 0.128137 -6105.025391 1896.266602 -0.529728 0.111974 1.105052 91.403113 2350.905762 0.047399 0.045217 0.002084 0.001874 0.000000 0.000000 0.000000 0.000000 0.000000 0.000000 0.000000 0.000000 0.000000 0.000000 0.000000 0.000000 0.000000 0.000000 0.000000 0.000000 0.000000 0.000000 0.000000 0.000000 0.000000 
0.2836 195.133 3.376248 -0.193961 83.378403 0.300206 4.000000 91.378102 0.024057 10000.000000 1529.028585 -2.000000 -0.372186 -5.027814 -0.166736 10000.000000 1529.028585 6.539859 -0.035907 0.128719 -6105.027344 1896.375122 -0.529674 0.108069 1.097117 91.378087 2359.357666 0.047015 0.044965 0.002106 0.001882 0.000000 0.000000 0.000000 0.000000 0.000000 0.000000 0.000000 0.000000 0.000000 0.000000 0.000000 0.000000 0.000000 0.000000 0.000000 0.000000 0.000000 0.000000 0.000000 0.000000 0.000000 
0.3003 195.15 3.361153 -0.188094 83.378403 0.300206 4.000000 91.352967 0.023619 10000.000000 1516.074356 -2.000000 -0.370232 -5.029768 -0.166579 10000.000000 1516.074356 6.595701 -0.036132 0.129186 -6105.029297 1896.484619 -0.529615 0.103483 1.088976 91.352952 2367.731934 0.046635 0.044716 0.002122 0.001888 0.000000 0.000000 0.000000 0.000000 0.000000 0.000000 0.000000 0.000000 0.000000 0.000000 0.000000 0.000000 0.000000 0.000000 0.000000 0.000000 0.000000 0.000000 0.000000 0.000000 0.000000 
0.316967 195.167 3.346158 -0.183573 83.378403 0.300206 4.000000 91.327825 0.023180 10000.000000 1503.394687 -2.000000 -0.368279 -5.031721 -0.167365 10000.000000 1503.394687 6.651296 -0.036275 0.129540 -6105.031250 1896.594971 -0.529550 0.098458 1.080672 91.327810 2376.029785 0.046261 0.044469 0.002132 0.001890 0.000000 0.000000 0.000000 0.000000 0.000000 0.000000 0.000000 0.000000 0.000000 0.000000 0.000000 0.000000 0.000000 0.000000 0.000000 0.000000 0.000000 0.000000 0.000000 0.000000 0.000000 
0.333667 195.183 3.330315 -0.180297 83.275864 0.300206 4.000000 91.301188 0.022715 10000.000000 1490.213941 -2.000000 -0.366325 -5.033675 -0.167365 10000.000000 1490.213941 6.710093 -0.036375 0.129794 -6105.033203 1896.713257 -0.529477 0.092929 1.071720 91.301173 2384.764404 0.045875 0.044207 0.002134 0.001888 0.000000 0.000000 0.000000 0.000000 0.000000 0.000000 0.000000 0.000000 0.000000 0.000000 0.000000 0.000000 0.000000 0.000000 0.000000 0.000000 0.000000 0.000000 0.000000 0.000000 0.000000 
0.350333 195.2 3.316569 -0.178453 83.275864 0.300206 4.000000 91.277794 0.022307 10000.000000 1478.823923 -2.000000 -0.364371 -5.035629 -0.168150 10000.000000 1478.823923 6.761750 -0.036434 0.129920 -6105.035156 1896.818481 -0.529411 0.088132 1.063754 91.277779 2392.475586 0.045550 0.043979 0.002129 0.001882 0.000000 0.000000 0.000000 0.000000 0.000000 0.000000 0.000000 0.000000 0.000000 0.000000 0.000000 0.000000 0.000000 0.000000 0.000000 0.000000 0.000000 0.000000 0.000000 0.000000 0.000000 
0.367033 195.217 3.301892 -0.177365 83.275864 0.300206 4.000000 91.252980 0.021874 10000.000000 1466.917463 -2.000000 -0.362418 -5.037582 -0.168150 10000.000000 1466.917463 6.816609 -0.036482 0.129957 -6105.037109 1896.931641 -0.529338 0.083328 1.055231 91.252965 2400.890381 0.045197 0.043716 0.002118 0.001872 0.000000 0.000000 0.000000 0.000000 0.000000 0.000000 0.000000 0.000000 0.000000 0.000000 0.000000 0.000000 0.000000 0.000000 0.000000 0.000000 0.000000 0.000000 0.000000 0.000000 0.000000 
0.3837 195.233 3.286794 -0.176840 83.275864 0.442540 4.000000 91.228296 0.021443 10000.000000 1455.256029 -2.000000 -0.360952 -5.039048 -0.168150 10000.000000 1455.256029 6.871211 -0.036518 0.129900 -6105.038574 1897.045776 -0.529266 0.079038 1.046721 91.228281 2409.569336 0.044858 0.043452 0.002102 0.001859 0.000000 0.000000 0.000000 0.000000 0.000000 0.000000 0.000000 0.000000 0.000000 0.000000 0.000000 0.000000 0.000000 0.000000 0.000000 0.000000 0.000000 0.000000 0.000000 0.000000 0.000000 
0.4004 195.25 3.271757 -0.176551 83.275864 0.442540 4.000000 91.203741 0.021014 10000.000000 1443.830228 -2.000000 -0.358999 -5.041001 -0.168150 10000.000000 1443.830228 6.925567 -0.036541 0.129757 -6105.040527 1897.160767 -0.529195 0.075407 1.038264 91.203726 2418.479248 0.044547 0.043200 0.002082 0.001845 0.000000 0.000000 0.000000 0.000000 0.000000 0.000000 0.000000 0.000000 0.000000 0.000000 0.000000 0.000000 0.000000 0.000000 0.000000 0.000000 0.000000 0.000000 0.000000 0.000000 0.000000 
0.417067 195.267 3.257434 -0.176326 83.275864 0.442540 4.000000 91.179282 0.020587 10000.000000 1432.629226 -2.000000 -0.357045 -5.042955 -0.167365 10000.000000 1432.629226 6.979697 -0.036546 0.129539 -6105.042480 1897.276611 -0.529127 0.072524 1.029904 91.179267 2427.538818 0.044269 0.042966 0.002061 0.001830 0.000000 0.000000 0.000000 0.000000 0.000000 0.000000 0.000000 0.000000 0.000000 0.000000 0.000000 0.000000 0.000000 0.000000 0.000000 0.000000 0.000000 0.000000 0.000000 0.000000 0.000000 
0.433767 195.283 3.243391 -0.175896 83.207504 0.300206 4.000000 91.153362 0.020135 10000.000000 1420.962729 -2.000000 -0.355091 -5.044909 -0.167365 10000.000000 1420.962729 7.036985 -0.036522 0.129238 -6105.044434 1897.400757 -0.529058 0.070315 1.021181 91.153347 2437.227783 0.044005 0.042733 0.002039 0.001816 0.000000 0.000000 0.000000 0.000000 0.000000 0.000000 0.000000 0.000000 0.000000 0.000000 0.000000 0.000000 0.000000 0.000000 0.000000 0.000000 0.000000 0.000000 0.000000 0.000000 0.000000 
0.450433 195.3 3.232012 -0.175423 83.207504 0.300206 4.000000 91.130515 0.019736 10000.000000 1410.861067 -2.000000 -0.353626 -5.046374 -0.165637 10000.000000 1410.861067 7.087357 -0.036471 0.128925 -6105.045898 1897.511108 -0.529001 0.069082 1.013667 91.130500 2445.761475 0.043794 0.042539 0.002021 0.001804 0.000000 0.000000 0.000000 0.000000 0.000000 0.000000 0.000000 0.000000 0.000000 0.000000 0.000000 0.000000 0.000000 0.000000 0.000000 0.000000 0.000000 0.000000 0.000000 0.000000 0.000000 
0.467133 195.317 3.220720 -0.174601 83.207504 0.442540 4.000000 91.106152 0.019311 10000.000000 1400.276990 -2.000000 -0.351672 -5.048328 -0.165637 10000.000000 1400.276990 7.140915 -0.036376 0.128553 -6105.047852 1897.629639 -0.528946 0.068444 1.005887 91.106137 2454.800293 0.043586 0.042339 0.002004 0.001793 0.000000 0.000000 0.000000 0.000000 0.000000 0.000000 0.000000 0.000000 0.000000 0.000000 0.000000 0.000000 0.000000 0.000000 0.000000 0.000000 0.000000 0.000000 0.000000 0.000000 0.000000 
0.4838 195.333 3.210013 -0.173654 83.207504 0.442540 4.000000 91.081754 0.018885 10000.000000 1389.884337 -2.000000 -0.350207 -5.049793 -0.162811 10000.000000 1389.884337 7.194299 -0.036233 0.128153 -6105.049316 1897.749146 -0.528897 0.068418 0.998392 91.081739 2463.748779 0.043389 0.042143 0.001991 0.001785 0.000000 0.000000 0.000000 0.000000 0.000000 0.000000 0.000000 0.000000 0.000000 0.000000 0.000000 0.000000 0.000000 0.000000 0.000000 0.000000 0.000000 0.000000 0.000000 0.000000 0.000000 
0.5005 195.35 3.199623 -0.172407 83.207504 0.442540 4.000000 91.057316 0.018459 10000.000000 1379.677397 -2.000000 -0.348741 -5.051259 -0.159513 10000.000000 1379.677397 7.247513 -0.036040 0.127736 -6105.050781 1897.869507 -0.528855 0.068882 0.991221 91.057301 2472.600342 0.043200 0.041951 0.001982 0.001779 0.000000 0.000000 0.000000 0.000000 0.000000 0.000000 0.000000 0.000000 0.000000 0.000000 0.000000 0.000000 0.000000 0.000000 0.000000 0.000000 0.000000 0.000000 0.000000 0.000000 0.000000 
0.517167 195.367 3.189341 -0.170976 83.207504 0.442540 4.000000 91.032823 0.018031 10000.000000 1369.651838 -2.000000 -0.346787 -5.053213 -0.159513 10000.000000 1369.651838 7.300555 -0.035787 0.127315 -6105.052734 1897.990723 -0.528821 0.069708 0.984405 91.032808 2481.360107 0.043015 0.041761 0.001977 0.001776 0.000000 0.000000 0.000000 0.000000 0.000000 0.000000 0.000000 0.000000 0.000000 0.000000 0.000000 0.000000 0.000000 0.000000 0.000000 0.000000 0.000000 0.000000 0.000000 0.000000 0.000000 
0.533867 195.383 3.178395 -0.169684 83.207504 0.442540 4.000000 91.006752 0.017576 10000.000000 1359.193425 -2.000000 -0.345322 -5.054678 -0.155430 10000.000000 1359.193425 7.356722 -0.035475 0.126874 -6105.054199 1898.120483 -0.528793 0.070842 0.977579 91.006737 2490.578857 0.042825 0.041563 0.001975 0.001775 0.000000 0.000000 0.000000 0.000000 0.000000 0.000000 0.000000 0.000000 0.000000 0.000000 0.000000 0.000000 0.000000 0.000000 0.000000 0.000000 0.000000 0.000000 0.000000 0.000000 0.000000 
0.550533 195.4 3.168672 -0.168711 83.207504 0.300206 4.000000 90.983720 0.017174 10000.000000 1350.126914 -2.000000 -0.343857 -5.056143 -0.155430 10000.000000 1350.126914 7.406117 -0.035153 0.126500 -6105.055664 1898.235840 -0.528776 0.071959 0.971928 90.983705 2498.648193 0.042660 0.041392 0.001977 0.001777 0.000000 0.000000 0.000000 0.000000 0.000000 0.000000 0.000000 0.000000 0.000000 0.000000 0.000000 0.000000 0.000000 0.000000 0.000000 0.000000 0.000000 0.000000 0.000000 0.000000 0.000000 
0.567233 195.417 3.158232 -0.167904 83.036606 0.300206 4.000000 90.959139 0.016745 10000.000000 1340.619159 -2.000000 -0.342391 -5.057609 -0.151033 10000.000000 1340.619159 7.458635 -0.034784 0.126126 -6105.057129 1898.359741 -0.528767 0.073172 0.966294 90.959124 2507.197754 0.042488 0.041214 0.001982 0.001781 0.000000 0.000000 0.000000 0.000000 0.000000 0.000000 0.000000 0.000000 0.000000 0.000000 0.000000 0.000000 0.000000 0.000000 0.000000 0.000000 0.000000 0.000000 0.000000 0.000000 0.000000 
0.5839 195.433 3.147092 -0.167102 83.036606 0.300206 4.000000 90.933040 0.016290 10000.000000 1330.697006 -2.000000 -0.340926 -5.059074 -0.151033 10000.000000 1330.697006 7.514242 -0.034350 0.125768 -6105.058594 1898.492310 -0.528767 0.074400 0.960758 90.933025 2516.223633 0.042308 0.041032 0.001990 0.001786 0.000000 0.000000 0.000000 0.000000 0.000000 0.000000 0.000000 0.000000 0.000000 0.000000 0.000000 0.000000 0.000000 0.000000 0.000000 0.000000 0.000000 0.000000 0.000000 0.000000 0.000000 
0.6006 195.45 3.137252 -0.166693 83.036606 0.442540 4.000000 90.910057 0.015888 10000.000000 1322.092141 -2.000000 -0.339460 -5.060540 -0.146008 10000.000000 1322.092141 7.563142 -0.033953 0.125495 -6105.060059 1898.610107 -0.528776 0.075370 0.956257 90.910042 2524.141602 0.042154 0.040877 0.001998 0.001793 0.000000 0.000000 0.000000 0.000000 0.000000 0.000000 0.000000 0.000000 0.000000 0.000000 0.000000 0.000000 0.000000 0.000000 0.000000 0.000000 0.000000 0.000000 0.000000 0.000000 0.000000 
0.617267 195.467 3.126446 -0.165955 83.036606 0.442540 4.000000 90.885639 0.015462 10000.000000 1313.067847 -2.000000 -0.337995 -5.062005 -0.146008 10000.000000 1313.067847 7.615113 -0.033500 0.125252 -6105.061523 1898.736694 -0.528793 0.076237 0.951843 90.885624 2532.773926 0.041934 0.040662 0.002007 0.001799 0.000000 0.000000 0.000000 0.000000 0.000000 0.000000 0.000000 0.000000 0.000000 0.000000 0.000000 0.000000 0.000000 0.000000 0.000000 0.000000 0.000000 0.000000 0.000000 0.000000 0.000000 
0.633967 195.483 3.110986 -0.165502 83.036606 0.442540 4.000000 90.859848 0.015012 10000.000000 1303.672185 -2.000000 -0.336529 -5.063471 -0.140041 10000.000000 1303.672185 7.669988 -0.033014 0.125046 -6105.062988 1898.871948 -0.528821 0.076935 0.947546 90.859833 2543.215576 0.041585 0.040325 0.002013 0.001803 0.000000 0.000000 0.000000 0.000000 0.000000 0.000000 0.000000 0.000000 0.000000 0.000000 0.000000 0.000000 0.000000 0.000000 0.000000 0.000000 0.000000 0.000000 0.000000 0.000000 0.000000 
0.650633 195.5 3.093337 -0.164514 83.036606 0.442540 4.000000 90.837254 0.014618 10000.000000 1295.548960 -2.000000 -0.335064 -5.064936 -0.140041 10000.000000 1295.548960 7.718072 -0.032561 0.124909 -6105.064453 1898.992188 -0.528854 0.077332 0.944028 90.837239 2553.766357 0.041301 0.040058 0.002017 0.001805 0.000000 0.000000 0.000000 0.000000 0.000000 0.000000 0.000000 0.000000 0.000000 0.000000 0.000000 0.000000 0.000000 0.000000 0.000000 0.000000 0.000000 0.000000 0.000000 0.000000 0.000000 
0.667333 195.517 3.074768 -0.163477 82.421349 0.442540 4.000000 90.813382 0.014201 10000.000000 1287.038650 -2.000000 -0.334087 -5.065913 -0.133917 10000.000000 1287.038650 7.769099 -0.032070 0.124819 -6105.065430 1899.121338 -0.528896 0.077515 0.940508 90.813367 2566.011963 0.041117 0.039890 0.002022 0.001809 0.000000 0.000000 0.000000 0.000000 0.000000 0.000000 0.000000 0.000000 0.000000 0.000000 0.000000 0.000000 0.000000 0.000000 0.000000 0.000000 0.000000 0.000000 0.000000 0.000000 0.000000 
0.684 195.533 3.061060 -0.161572 81.942818 0.300206 4.000000 90.788316 0.013764 10000.000000 1278.139271 -2.000000 -0.332621 -5.067379 -0.133917 10000.000000 1278.139271 7.823184 -0.031524 0.124805 -6105.066895 1899.259399 -0.528949 0.077417 0.937024 90.788301 2579.522461 0.041058 0.039848 0.002029 0.001815 0.000000 0.000000 0.000000 0.000000 0.000000 0.000000 0.000000 0.000000 0.000000 0.000000 0.000000 0.000000 0.000000 0.000000 0.000000 0.000000 0.000000 0.000000 0.000000 0.000000 0.000000 
0.7007 195.55 3.055337 -0.160205 81.942818 0.300206 4.000000 90.767934 0.013408 10000.000000 1270.905702 -2.000000 -0.331644 -5.068356 -0.127792 10000.000000 1270.905702 7.867703 -0.031072 0.124874 -6105.067871 1899.373779 -0.528998 0.077121 0.934374 90.767919 2590.668945 0.041066 0.039871 0.002034 0.001820 0.000000 0.000000 0.000000 0.000000 0.000000 0.000000 0.000000 0.000000 0.000000 0.000000 0.000000 0.000000 0.000000 0.000000 0.000000 0.000000 0.000000 0.000000 0.000000 0.000000 0.000000 
0.717367 195.567 3.053270 -0.157944 81.942818 0.300206 4.000000 90.744971 0.013007 10000.000000 1262.735042 -2.000000 -0.330178 -5.069822 -0.127792 10000.000000 1262.735042 7.918602 -0.030537 0.125059 -6105.069336 1899.505371 -0.529058 0.076552 0.931612 90.744956 2603.214355 0.041106 0.039933 0.002036 0.001825 0.000000 0.000000 0.000000 0.000000 0.000000 0.000000 0.000000 0.000000 0.000000 0.000000 0.000000 0.000000 0.000000 0.000000 0.000000 0.000000 0.000000 0.000000 0.000000 0.000000 0.000000 
0.734067 195.583 3.053942 -0.155587 81.942818 0.300206 4.000000 90.722370 0.012613 10000.000000 1254.662991 -2.000000 -0.329201 -5.070799 -0.122924 10000.000000 1254.662991 7.969537 -0.029990 0.125358 -6105.070313 1899.637817 -0.529122 0.075763 0.929159 90.722355 2615.507080 0.041150 0.040002 0.002035 0.001827 0.000000 0.000000 0.000000 0.000000 0.000000 0.000000 0.000000 0.000000 0.000000 0.000000 0.000000 0.000000 0.000000 0.000000 0.000000 0.000000 0.000000 0.000000 0.000000 0.000000 0.000000 
0.750733 195.6 3.055546 -0.153151 81.635201 0.442540 4.000000 90.700172 0.012225 10000.000000 1246.688668 -2.000000 -0.327736 -5.072264 -0.122924 10000.000000 1246.688668 8.020502 -0.029443 0.125769 -6105.071777 1899.770996 -0.529189 0.074778 0.927027 90.700157 2627.603271 0.041186 0.040061 0.002030 0.001827 0.000000 0.000000 0.000000 0.000000 0.000000 0.000000 0.000000 0.000000 0.000000 0.000000 0.000000 0.000000 0.000000 0.000000 0.000000 0.000000 0.000000 0.000000 0.000000 0.000000 0.000000 
0.767433 195.6 3.055546 -0.153151 81.635201 0.442540 4.000000 90.700172 0.012225 10000.000000 1246.688668 -2.000000 -0.327736 -5.072264 -0.122924 10000.000000 1246.688668 8.020502 -0.029443 0.125769 -6105.071777 1899.770996 -0.529189 0.074778 0.927027 90.700157 2627.603271 0.041186 0.040061 0.002030 0.001827 0.000000 0.000000 0.000000 0.000000 0.000000 0.000000 0.000000 0.000000 0.000000 0.000000 0.000000 0.000000 0.000000 0.000000 0.000000 0.000000 0.000000 0.000000 0.000000 0.000000 0.000000 
0.7841 195.633 3.057702 -0.149820 81.566826 0.442540 4.000000 90.655653 0.011443 10000.000000 10000.000000 2.000000 -0.326270 5.073730 -0.118213 10000.000000 10000.000000 8.125647 -0.028364 0.126943 -6105.073730 1900.048584 -0.529330 0.072370 0.923627 90.655638 2652.292969 0.041224 0.040142 0.002008 0.001820 0.000000 0.000000 0.000000 0.000000 0.000000 0.000000 0.000000 0.000000 0.000000 0.000000 0.000000 0.000000 0.000000 0.000000 0.000000 0.000000 0.000000 0.000000 0.000000 0.000000 0.000000 
0.8008 195.65 3.057797 -0.149284 81.566826 0.442540 4.000000 90.635968 0.011100 10000.000000 1223.355732 2.000000 -0.325293 5.074707 -0.118213 10000.000000 1223.355732 8.173434 -0.027918 0.127603 -6105.074707 1900.175903 -0.529393 0.071231 0.922490 90.635953 2663.502441 0.041236 0.040166 0.001994 0.001815 0.000000 0.000000 0.000000 0.000000 0.000000 0.000000 0.000000 0.000000 0.000000 0.000000 0.000000 0.000000 0.000000 0.000000 0.000000 0.000000 0.000000 0.000000 0.000000 0.000000 0.000000 
0.817467 195.667 3.057540 -0.149424 81.566826 0.442540 4.000000 90.615314 0.010739 10000.000000 1215.772569 2.000000 -0.324316 5.075684 -0.117899 10000.000000 1215.772569 8.224400 -0.027486 0.128379 -6105.075684 1900.312622 -0.529460 0.070080 0.921527 90.615299 2675.468506 0.041250 0.040188 0.001977 0.001809 0.000000 0.000000 0.000000 0.000000 0.000000 0.000000 0.000000 0.000000 0.000000 0.000000 0.000000 0.000000 0.000000 0.000000 0.000000 0.000000 0.000000 0.000000 0.000000 0.000000 0.000000 
0.834167 195.683 3.057137 -0.150392 81.566826 0.442540 4.000000 90.593717 0.010362 10000.000000 1207.818819 2.000000 -0.322852 5.077148 -0.117899 10000.000000 1207.818819 8.278542 -0.027084 0.129276 -6105.077148 1900.458740 -0.529528 0.069011 0.920753 90.593702 2688.180176 0.041271 0.040208 0.001959 0.001803 0.000000 0.000000 0.000000 0.000000 0.000000 0.000000 0.000000 0.000000 0.000000 0.000000 0.000000 0.000000 0.000000 0.000000 0.000000 0.000000 0.000000 0.000000 0.000000 0.000000 0.000000 
0.850833 195.7 3.056826 -0.151819 81.566826 0.300206 4.000000 90.574920 0.010034 10000.000000 1200.887436 2.000000 -0.322363 5.077637 -0.118213 10000.000000 1200.887436 8.326309 -0.026780 0.130119 -6105.077637 1900.588501 -0.529587 0.068260 0.920258 90.574905 2699.379883 0.041293 0.040223 0.001942 0.001797 0.000000 0.000000 0.000000 0.000000 0.000000 0.000000 0.000000 0.000000 0.000000 0.000000 0.000000 0.000000 0.000000 0.000000 0.000000 0.000000 0.000000 0.000000 0.000000 0.000000 0.000000 
0.867533 195.717 3.056603 -0.153868 81.293373 0.300206 4.000000 90.555085 0.009688 10000.000000 1193.581195 2.000000 -0.321387 5.078613 -0.118213 10000.000000 1193.581195 8.377259 -0.026509 0.131063 -6105.078613 1900.727661 -0.529646 0.067705 0.919896 90.555070 2711.296387 0.041320 0.040236 0.001924 0.001791 0.000000 0.000000 0.000000 0.000000 0.000000 0.000000 0.000000 0.000000 0.000000 0.000000 0.000000 0.000000 0.000000 0.000000 0.000000 0.000000 0.000000 0.000000 0.000000 0.000000 0.000000 
0.8842 195.733 3.056480 -0.156234 81.293373 0.300206 4.000000 90.535428 0.009345 10000.000000 1186.363321 2.000000 -0.320410 5.079590 -0.118213 10000.000000 1186.363321 8.428208 -0.026287 0.132046 -6105.079590 1900.867676 -0.529703 0.067439 0.919681 90.535413 2723.175781 0.041349 0.040246 0.001908 0.001786 0.000000 0.000000 0.000000 0.000000 0.000000 0.000000 0.000000 0.000000 0.000000 0.000000 0.000000 0.000000 0.000000 0.000000 0.000000 0.000000 0.000000 0.000000 0.000000 0.000000 0.000000 
0.9009 195.75 3.056418 -0.158693 81.293373 0.300206 4.000000 90.515880 0.009004 10000.000000 1179.232615 2.000000 -0.319434 5.080566 -0.118213 10000.000000 1179.232615 8.479156 -0.026105 0.133059 -6105.080566 1901.008667 -0.529756 0.067471 0.919587 90.515865 2735.016602 0.041379 0.040251 0.001893 0.001782 0.000000 0.000000 0.000000 0.000000 0.000000 0.000000 0.000000 0.000000 0.000000 0.000000 0.000000 0.000000 0.000000 0.000000 0.000000 0.000000 0.000000 0.000000 0.000000 0.000000 0.000000 
0.917567 195.767 3.056372 -0.161086 81.293373 0.300206 4.000000 90.496407 0.008664 10000.000000 1172.187117 2.000000 -0.318457 5.081543 -0.117585 10000.000000 1172.187117 8.530102 -0.025954 0.134095 -6105.081543 1901.150391 -0.529805 0.067792 0.919591 90.496392 2746.821045 0.041408 0.040253 0.001881 0.001779 0.000000 0.000000 0.000000 0.000000 0.000000 0.000000 0.000000 0.000000 0.000000 0.000000 0.000000 0.000000 0.000000 0.000000 0.000000 0.000000 0.000000 0.000000 0.000000 0.000000 0.000000 
0.934267 195.783 3.056312 -0.163307 81.225014 0.300206 4.000000 90.475753 0.008303 10000.000000 1164.793246 2.000000 -0.317969 5.082031 -0.117585 10000.000000 1164.793246 8.584231 -0.025811 0.135213 -6105.082031 1901.301880 -0.529854 0.068415 0.919677 90.475737 2759.326172 0.041437 0.040252 0.001870 0.001778 0.000000 0.000000 0.000000 0.000000 0.000000 0.000000 0.000000 0.000000 0.000000 0.000000 0.000000 0.000000 0.000000 0.000000 0.000000 0.000000 0.000000 0.000000 0.000000 0.000000 0.000000 
0.950933 195.8 3.056237 -0.164966 81.225014 0.300206 4.000000 90.457516 0.007985 10000.000000 1158.346472 2.000000 -0.316992 5.083008 -0.116172 10000.000000 1158.346472 8.631990 -0.025690 0.136209 -6105.083008 1901.436401 -0.529893 0.069161 0.919805 90.457501 2770.331055 0.041460 0.040250 0.001863 0.001778 0.000000 0.000000 0.000000 0.000000 0.000000 0.000000 0.000000 0.000000 0.000000 0.000000 0.000000 0.000000 0.000000 0.000000 0.000000 0.000000 0.000000 0.000000 0.000000 0.000000 0.000000 
0.967633 195.817 3.056140 -0.166261 81.225014 0.300206 4.000000 90.438043 0.007645 10000.000000 1151.548504 2.000000 -0.316504 5.083496 -0.116172 10000.000000 1151.548504 8.682932 -0.025555 0.137276 -6105.083496 1901.580811 -0.529931 0.070100 0.919978 90.438028 2782.040771 0.041481 0.040246 0.001859 0.001780 0.000000 0.000000 0.000000 0.000000 0.000000 0.000000 0.000000 0.000000 0.000000 0.000000 0.000000 0.000000 0.000000 0.000000 0.000000 0.000000 0.000000 0.000000 0.000000 0.000000 0.000000 
0.9843 195.833 3.055885 -0.167103 81.225014 0.442540 4.000000 90.392848 0.006856 10000.000000 1136.131029 2.000000 -0.315039 5.084961 -0.109734 10000.000000 1136.131029 8.800726 -0.025148 0.139736 -6105.084961 1901.917725 -0.530006 0.072468 0.920438 90.392833 2808.960938 0.041512 0.040239 0.001858 0.001790 0.000000 0.000000 0.000000 0.000000 0.000000 0.000000 0.000000 0.000000 0.000000 0.000000 0.000000 0.000000 0.000000 0.000000 0.000000 0.000000 0.000000 0.000000 0.000000 0.000000 0.000000 
1.001 195.85 3.055870 -0.167024 81.225014 0.442540 4.000000 90.390402 0.006814 10000.000000 1135.309564 2.000000 -0.315039 5.084961 -0.109734 10000.000000 1135.309564 8.807093 -0.025120 0.139868 -6105.084961 1901.936035 -0.530009 0.072590 0.920463 90.390387 2810.397949 0.041513 0.040238 0.001858 0.001790 0.000000 0.000000 0.000000 0.000000 0.000000 0.000000 0.000000 0.000000 0.000000 0.000000 0.000000 0.000000 0.000000 0.000000 0.000000 0.000000 0.000000 0.000000 0.000000 0.000000 0.000000 
1.01767 195.867 3.055790 -0.166504 81.225014 0.442540 4.000000 90.379385 0.006622 10000.000000 1131.627378 2.000000 -0.314551 5.085449 -0.109734 10000.000000 1131.627378 8.835743 -0.024985 0.140460 -6105.085449 1902.018799 -0.530024 0.073118 0.920574 90.379370 2816.832520 0.041514 0.040236 0.001860 0.001794 0.000000 0.000000 0.000000 0.000000 0.000000 0.000000 0.000000 0.000000 0.000000 0.000000 0.000000 0.000000 0.000000 0.000000 0.000000 0.000000 0.000000 0.000000 0.000000 0.000000 0.000000 
1.03437 195.883 3.055492 -0.165573 81.225014 0.442540 4.000000 90.359796 0.006280 10000.000000 1125.140820 2.000000 -0.314063 5.085938 -0.104395 10000.000000 1125.140820 8.886669 -0.024724 0.141502 -6105.085938 1902.166504 -0.530048 0.073945 0.920758 90.359781 2828.169678 0.041511 0.040231 0.001864 0.001801 0.000000 0.000000 0.000000 0.000000 0.000000 0.000000 0.000000 0.000000 0.000000 0.000000 0.000000 0.000000 0.000000 0.000000 0.000000 0.000000 0.000000 0.000000 0.000000 0.000000 0.000000 
1.05103 195.9 3.055267 -0.164591 81.225014 0.442540 4.000000 90.346341 0.006045 10000.000000 1120.724668 2.000000 -0.313574 5.086426 -0.104395 10000.000000 1120.724668 8.921679 -0.024509 0.142211 -6105.086426 1902.268555 -0.530063 0.074411 0.920872 90.346326 2835.914307 0.041510 0.040234 0.001868 0.001807 0.000000 0.000000 0.000000 0.000000 0.000000 0.000000 0.000000 0.000000 0.000000 0.000000 0.000000 0.000000 0.000000 0.000000 0.000000 0.000000 0.000000 0.000000 0.000000 0.000000 0.000000 
1.06773 195.917 3.055024 -0.161698 81.225014 0.300206 4.000000 90.319526 0.005577 10000.000000 1111.995907 2.000000 -0.313086 5.086914 -0.098741 10000.000000 1111.995907 8.991697 -0.024017 0.143606 -6105.086914 1902.473755 -0.530088 0.075005 0.921060 90.319511 2851.361328 0.041496 0.040237 0.001877 0.001818 0.000000 0.000000 0.000000 0.000000 0.000000 0.000000 0.000000 0.000000 0.000000 0.000000 0.000000 0.000000 0.000000 0.000000 0.000000 0.000000 0.000000 0.000000 0.000000 0.000000 0.000000 
1.0844 195.933 3.054730 -0.158655 81.225014 0.300206 4.000000 90.300155 0.005239 10000.000000 1105.733930 2.000000 -0.312598 5.087402 -0.098741 10000.000000 1105.733930 9.042611 -0.023589 0.144599 -6105.087402 1902.624146 -0.530103 0.075106 0.921158 90.300140 2862.593506 0.041476 0.040239 0.001884 0.001827 0.000000 0.000000 0.000000 0.000000 0.000000 0.000000 0.000000 0.000000 0.000000 0.000000 0.000000 0.000000 0.000000 0.000000 0.000000 0.000000 0.000000 0.000000 0.000000 0.000000 0.000000 
1.1011 195.95 3.054289 -0.155642 81.225014 0.300206 4.000000 90.280949 0.004903 10000.000000 1099.543238 2.000000 -0.312109 5.087891 -0.092460 10000.000000 1099.543238 9.093516 -0.023123 0.145574 -6105.087891 1902.775269 -0.530116 0.074904 0.921218 90.280934 2873.829102 0.041453 0.040243 0.001890 0.001834 0.000000 0.000000 0.000000 0.000000 0.000000 0.000000 0.000000 0.000000 0.000000 0.000000 0.000000 0.000000 0.000000 0.000000 0.000000 0.000000 0.000000 0.000000 0.000000 0.000000 0.000000 
1.11777 195.967 3.053845 -0.152039 81.225014 0.300206 4.000000 90.263156 0.004593 10000.000000 1093.803004 2.000000 -0.312109 5.087891 -0.092460 10000.000000 1093.803004 9.141232 -0.022634 0.146469 -6105.087891 1902.917725 -0.530125 0.074422 0.921237 90.263141 2884.356689 0.041429 0.040251 0.001896 0.001841 0.000000 0.000000 0.000000 0.000000 0.000000 0.000000 0.000000 0.000000 0.000000 0.000000 0.000000 0.000000 0.000000 0.000000 0.000000 0.000000 0.000000 0.000000 0.000000 0.000000 0.000000 
1.13447 195.983 3.053397 -0.148048 81.225014 0.300206 4.000000 90.243280 0.004246 10000.000000 1087.370554 2.000000 -0.311621 5.088379 -0.086336 10000.000000 1087.370554 9.195304 -0.022045 0.147464 -6105.088379 1903.080078 -0.530134 0.073544 0.921215 90.243265 2896.268555 0.041400 0.040263 0.001901 0.001846 0.000000 0.000000 0.000000 0.000000 0.000000 0.000000 0.000000 0.000000 0.000000 0.000000 0.000000 0.000000 0.000000 0.000000 0.000000 0.000000 0.000000 0.000000 0.000000 0.000000 0.000000 
1.15113 196 3.052632 -0.143721 81.225014 0.300206 4.000000 90.224914 0.003925 10000.000000 1081.388573 2.000000 -0.311621 5.088379 -0.086336 10000.000000 1081.388573 9.246166 -0.021451 0.148386 -6105.088379 1903.233765 -0.530140 0.072391 0.921151 90.224899 2907.768066 0.041300 0.040204 0.001902 0.001849 0.000000 0.000000 0.000000 0.000000 0.000000 0.000000 0.000000 0.000000 0.000000 0.000000 0.000000 0.000000 0.000000 0.000000 0.000000 0.000000 0.000000 0.000000 0.000000 0.000000 0.000000 
1.16783 196.017 3.047800 -0.140083 81.259193 0.442540 4.000000 90.208043 0.003631 10000.000000 1075.858922 2.000000 -0.311133 5.088867 -0.080369 10000.000000 1075.858922 9.293686 -0.020879 0.149230 -6105.088867 1903.378662 -0.530144 0.071038 0.921024 90.208028 2919.763428 0.041084 0.040027 0.001898 0.001845 0.000000 0.000000 0.000000 0.000000 0.000000 0.000000 0.000000 0.000000 0.000000 0.000000 0.000000 0.000000 0.000000 0.000000 0.000000 0.000000 0.000000 0.000000 0.000000 0.000000 0.000000 
1.1845 196.033 3.036983 -0.135612 81.259193 0.442540 4.000000 90.189363 0.003305 10000.000000 1069.686258 2.000000 -0.311133 5.088867 -0.080369 10000.000000 1069.686258 9.347314 -0.020211 0.150150 -6105.088867 1903.543701 -0.530147 0.069194 0.920735 90.189348 2934.570068 0.040899 0.039888 0.001891 0.001839 0.000000 0.000000 0.000000 0.000000 0.000000 0.000000 0.000000 0.000000 0.000000 0.000000 0.000000 0.000000 0.000000 0.000000 0.000000 0.000000 0.000000 0.000000 0.000000 0.000000 0.000000 
1.2012 196.05 3.028006 -0.132003 81.259193 0.442540 4.000000 90.172246 0.003006 10000.000000 1063.952454 2.000000 -0.310645 5.089355 -0.075658 10000.000000 1063.952454 9.397687 -0.019586 0.150983 -6105.089355 1903.699951 -0.530148 0.067209 0.920295 90.172231 2948.796631 0.040846 0.039873 0.001886 0.001833 0.000000 0.000000 0.000000 0.000000 0.000000 0.000000 0.000000 0.000000 0.000000 0.000000 0.000000 0.000000 0.000000 0.000000 0.000000 0.000000 0.000000 0.000000 0.000000 0.000000 0.000000 
1.21787 196.067 3.024167 -0.128686 81.259193 0.300206 4.000000 90.156619 0.002734 10000.000000 1058.631731 2.000000 -0.310645 5.089355 -0.075658 10000.000000 1058.631731 9.444920 -0.019008 0.151743 -6105.089355 1903.847168 -0.530147 0.065170 0.919750 90.156604 2961.904541 0.040854 0.039915 0.001881 0.001828 0.000000 0.000000 0.000000 0.000000 0.000000 0.000000 0.000000 0.000000 0.000000 0.000000 0.000000 0.000000 0.000000 0.000000 0.000000 0.000000 0.000000 0.000000 0.000000 0.000000 0.000000 
1.23457 196.083 3.024056 -0.125481 81.259193 0.300206 4.000000 90.139427 0.002433 10000.000000 1052.661062 2.000000 -0.310645 5.089355 -0.072046 10000.000000 1052.661062 9.498492 -0.018371 0.152581 -6105.089355 1904.015015 -0.530144 0.062724 0.919012 90.139412 2976.445557 0.040864 0.039960 0.001873 0.001821 0.000000 0.000000 0.000000 0.000000 0.000000 0.000000 0.000000 0.000000 0.000000 0.000000 0.000000 0.000000 0.000000 0.000000 0.000000 0.000000 0.000000 0.000000 0.000000 0.000000 0.000000 
1.25123 196.1 3.025202 -0.122892 81.259193 0.300206 4.000000 90.123738 0.002160 10000.000000 1047.100426 2.000000 -0.310645 5.089355 -0.069847 10000.000000 1047.100426 9.548935 -0.017806 0.153349 -6105.089355 1904.173706 -0.530140 0.060361 0.918230 90.123723 2990.000244 0.040850 0.039976 0.001863 0.001811 0.000000 0.000000 0.000000 0.000000 0.000000 0.000000 0.000000 0.000000 0.000000 0.000000 0.000000 0.000000 0.000000 0.000000 0.000000 0.000000 0.000000 0.000000 0.000000 0.000000 0.000000 
1.26793 196.117 3.025739 -0.121026 81.259193 0.300206 4.000000 90.109463 0.001910 10000.000000 1041.941024 2.000000 -0.310645 5.089355 -0.069847 10000.000000 1041.941024 9.596220 -0.017308 0.154049 -6105.089355 1904.323242 -0.530135 0.058171 0.917439 90.109448 3002.716309 0.040821 0.039975 0.001852 0.001800 0.000000 0.000000 0.000000 0.000000 0.000000 0.000000 0.000000 0.000000 0.000000 0.000000 0.000000 0.000000 0.000000 0.000000 0.000000 0.000000 0.000000 0.000000 0.000000 0.000000 0.000000 
1.2846 196.133 3.025445 -0.119548 81.293373 0.442540 4.000000 90.093754 0.001636 10000.000000 1036.156729 2.000000 -0.310645 5.089355 -0.069062 10000.000000 1036.156729 9.649794 -0.016796 0.154815 -6105.089355 1904.493774 -0.530128 0.055803 0.916489 90.093739 3017.172119 0.040788 0.039967 0.001837 0.001786 0.000000 0.000000 0.000000 0.000000 0.000000 0.000000 0.000000 0.000000 0.000000 0.000000 0.000000 0.000000 0.000000 0.000000 0.000000 0.000000 0.000000 0.000000 0.000000 0.000000 0.000000 
1.3013 196.15 3.024773 -0.118835 81.293373 0.442540 4.000000 90.079397 0.001386 10000.000000 1030.772396 2.000000 -0.310645 5.089355 -0.069062 10000.000000 1030.772396 9.700203 -0.016369 0.155509 -6105.089355 1904.655029 -0.530121 0.053775 0.915553 90.079382 3030.796387 0.040765 0.039960 0.001822 0.001773 0.000000 0.000000 0.000000 0.000000 0.000000 0.000000 0.000000 0.000000 0.000000 0.000000 0.000000 0.000000 0.000000 0.000000 0.000000 0.000000 0.000000 0.000000 0.000000 0.000000 0.000000 
1.31797 196.167 3.024158 -0.118805 81.293373 0.442540 4.000000 90.065415 0.001142 10000.000000 1025.444735 2.000000 -0.310645 5.089355 -0.069219 10000.000000 1025.444735 9.750604 -0.016001 0.156177 -6105.089355 1904.817139 -0.530113 0.052020 0.914589 90.065400 3044.396729 0.040749 0.039955 0.001807 0.001760 0.000000 0.000000 0.000000 0.000000 0.000000 0.000000 0.000000 0.000000 0.000000 0.000000 0.000000 0.000000 0.000000 0.000000 0.000000 0.000000 0.000000 0.000000 0.000000 0.000000 0.000000 
1.33467 196.183 3.023703 -0.119407 81.293373 0.442540 4.000000 90.051762 0.000903 10000.000000 1020.172460 2.000000 -0.310645 5.089355 -0.069219 10000.000000 1020.172460 9.801000 -0.015692 0.156828 -6105.089355 1904.980103 -0.530104 0.050610 0.913610 90.051747 3057.963379 0.040739 0.039951 0.001792 0.001747 0.000000 0.000000 0.000000 0.000000 0.000000 0.000000 0.000000 0.000000 0.000000 0.000000 0.000000 0.000000 0.000000 0.000000 0.000000 0.000000 0.000000 0.000000 0.000000 0.000000 0.000000 
1.35133 196.2 3.023325 -0.120390 81.293373 0.300206 4.000000 90.038375 0.000670 10000.000000 1014.954810 2.000000 -0.310645 5.089355 -0.069376 10000.000000 1014.954810 9.851389 -0.015436 0.157464 -6105.089355 1905.143799 -0.530095 0.049597 0.912627 90.038360 3071.504639 0.040731 0.039944 0.001778 0.001735 0.000000 0.000000 0.000000 0.000000 0.000000 0.000000 0.000000 0.000000 0.000000 0.000000 0.000000 0.000000 0.000000 0.000000 0.000000 0.000000 0.000000 0.000000 0.000000 0.000000 0.000000 
1.36803 196.217 3.022954 -0.121492 81.293373 0.300206 4.000000 90.026032 0.000454 10000.000000 1010.112336 2.000000 -0.311133 5.088867 -0.069376 10000.000000 1010.112336 9.898622 -0.015239 0.158049 -6105.088867 1905.298218 -0.530087 0.049031 0.911712 90.026017 3084.184814 0.040725 0.039934 0.001766 0.001725 0.000000 0.000000 0.000000 0.000000 0.000000 0.000000 0.000000 0.000000 0.000000 0.000000 0.000000 0.000000 0.000000 0.000000 0.000000 0.000000 0.000000 0.000000 0.000000 0.000000 0.000000 
1.3847 196.233 3.022508 -0.122681 81.293373 0.300206 4.000000 90.013021 0.000227 10000.000000 1004.998463 2.000000 -0.311133 5.088867 -0.069376 10000.000000 1004.998463 9.948996 -0.015062 0.158663 -6105.088867 1905.463623 -0.530079 0.048835 0.910754 90.013006 3097.697510 0.040722 0.039921 0.001755 0.001716 0.000000 0.000000 0.000000 0.000000 0.000000 0.000000 0.000000 0.000000 0.000000 0.000000 0.000000 0.000000 0.000000 0.000000 0.000000 0.000000 0.000000 0.000000 0.000000 0.000000 0.000000 
1.4014 196.25 3.022000 -0.123847 81.395927 0.300206 4.000000 89.999333 -0.000012 10000.000000 999.622392 2.000000 -0.311621 5.088379 -0.069376 10000.000000 999.622392 10.002509 -0.014902 0.159307 -6105.088379 1905.640259 -0.530070 0.049059 0.909765 89.999318 3112.042480 0.040721 0.039906 0.001745 0.001708 0.000000 0.000000 0.000000 0.000000 0.000000 0.000000 0.000000 0.000000 0.000000 0.000000 0.000000 0.000000 0.000000 0.000000 0.000000 0.000000 0.000000 0.000000 0.000000 0.000000 0.000000 
1.41807 196.267 3.021555 -0.124751 81.395927 0.300206 4.000000 89.987326 -0.000221 10000.000000 994.927141 2.000000 -0.311621 5.088379 -0.069219 10000.000000 994.927141 10.049720 -0.014775 0.159870 -6105.088379 1905.796997 -0.530064 0.049583 0.908927 89.987311 3124.707764 0.040723 0.039892 0.001738 0.001703 0.000000 0.000000 0.000000 0.000000 0.000000 0.000000 0.000000 0.000000 0.000000 0.000000 0.000000 0.000000 0.000000 0.000000 0.000000 0.000000 0.000000 0.000000 0.000000 0.000000 0.000000 
1.43477 196.283 3.021119 -0.125628 81.327553 0.442540 4.000000 89.973761 -0.000458 10000.000000 989.659492 2.000000 -0.312109 5.087891 -0.069219 10000.000000 989.659492 10.103219 -0.014638 0.160505 -6105.087891 1905.975342 -0.530057 0.050480 0.908025 89.973746 3139.022949 0.040729 0.039877 0.001733 0.001698 0.000000 0.000000 0.000000 0.000000 0.000000 0.000000 0.000000 0.000000 0.000000 0.000000 0.000000 0.000000 0.000000 0.000000 0.000000 0.000000 0.000000 0.000000 0.000000 0.000000 0.000000 
1.45143 196.3 3.020761 -0.126224 81.327553 0.442540 4.000000 89.961002 -0.000681 10000.000000 984.753070 2.000000 -0.312598 5.087402 -0.068277 10000.000000 984.753070 10.153564 -0.014505 0.161101 -6105.087402 1906.144287 -0.530051 0.051544 0.907231 89.960987 3152.446289 0.040734 0.039862 0.001729 0.001696 0.000000 0.000000 0.000000 0.000000 0.000000 0.000000 0.000000 0.000000 0.000000 0.000000 0.000000 0.000000 0.000000 0.000000 0.000000 0.000000 0.000000 0.000000 0.000000 0.000000 0.000000 
1.46813 196.317 3.020344 -0.126535 81.327553 0.442540 4.000000 89.948243 -0.000903 10000.000000 979.895882 2.000000 -0.312598 5.087402 -0.066550 10000.000000 979.895882 10.203902 -0.014362 0.161697 -6105.087402 1906.313843 -0.530047 0.052738 0.906495 89.948228 3165.860840 0.040737 0.039845 0.001727 0.001695 0.000000 0.000000 0.000000 0.000000 0.000000 0.000000 0.000000 0.000000 0.000000 0.000000 0.000000 0.000000 0.000000 0.000000 0.000000 0.000000 0.000000 0.000000 0.000000 0.000000 0.000000 
1.4848 196.333 3.019862 -0.126451 81.395927 0.442540 4.000000 89.936263 -0.001112 10000.000000 975.386508 2.000000 -0.313086 5.086914 -0.066550 10000.000000 975.386508 10.251084 -0.014205 0.162259 -6105.086914 1906.473755 -0.530044 0.053899 0.905862 89.936248 3178.434570 0.040738 0.039831 0.001728 0.001695 0.000000 0.000000 0.000000 0.000000 0.000000 0.000000 0.000000 0.000000 0.000000 0.000000 0.000000 0.000000 0.000000 0.000000 0.000000 0.000000 0.000000 0.000000 0.000000 0.000000 0.000000 
1.5015 196.35 3.019302 -0.126096 81.395927 0.442540 4.000000 89.923477 -0.001336 10000.000000 970.623032 2.000000 -0.313574 5.086426 -0.064194 10000.000000 970.623032 10.301402 -0.014019 0.162865 -6105.086426 1906.645020 -0.530042 0.055101 0.905249 89.923462 3191.859619 0.040741 0.039819 0.001729 0.001696 0.000000 0.000000 0.000000 0.000000 0.000000 0.000000 0.000000 0.000000 0.000000 0.000000 0.000000 0.000000 0.000000 0.000000 0.000000 0.000000 0.000000 0.000000 0.000000 0.000000 0.000000 
1.51817 196.367 3.018776 -0.125268 81.395927 0.442540 4.000000 89.909878 -0.001573 10000.000000 965.613216 2.000000 -0.314062 5.085938 -0.064194 10000.000000 965.613216 10.354857 -0.013785 0.163517 -6105.085938 1906.827881 -0.530041 0.056250 0.904671 89.909863 3206.093994 0.040746 0.039810 0.001732 0.001699 0.000000 0.000000 0.000000 0.000000 0.000000 0.000000 0.000000 0.000000 0.000000 0.000000 0.000000 0.000000 0.000000 0.000000 0.000000 0.000000 0.000000 0.000000 0.000000 0.000000 0.000000 
1.53487 196.383 3.018373 -0.124356 81.327553 0.300206 4.000000 89.897099 -0.001796 10000.000000 960.945638 2.000000 -0.314551 5.085449 -0.061682 10000.000000 960.945638 10.405163 -0.013540 0.164140 -6105.085449 1907.000977 -0.530042 0.057141 0.904198 89.897084 3219.458740 0.040747 0.039805 0.001736 0.001703 0.000000 0.000000 0.000000 0.000000 0.000000 0.000000 0.000000 0.000000 0.000000 0.000000 0.000000 0.000000 0.000000 0.000000 0.000000 0.000000 0.000000 0.000000 0.000000 0.000000 0.000000 
1.55153 196.4 3.017988 -0.123105 81.327553 0.300206 4.000000 89.884347 -0.002019 10000.000000 956.323751 2.000000 -0.315039 5.084961 -0.061682 10000.000000 956.323751 10.455461 -0.013266 0.164773 -6105.084961 1907.174805 -0.530044 0.057795 0.903793 89.884332 3232.779297 0.040745 0.039800 0.001741 0.001707 0.000000 0.000000 0.000000 0.000000 0.000000 0.000000 0.000000 0.000000 0.000000 0.000000 0.000000 0.000000 0.000000 0.000000 0.000000 0.000000 0.000000 0.000000 0.000000 0.000000 0.000000 
1.56823 196.417 3.017525 -0.122005 81.327553 0.300206 4.000000 89.871663 -0.002240 10000.000000 951.746889 2.000000 -0.315527 5.084473 -0.058070 10000.000000 951.746889 10.505749 -0.012975 0.165417 -6105.084473 1907.349487 -0.530048 0.058187 0.903456 89.871648 3246.097168 0.040738 0.039796 0.001745 0.001711 0.000000 0.000000 0.000000 0.000000 0.000000 0.000000 0.000000 0.000000 0.000000 0.000000 0.000000 0.000000 0.000000 0.000000 0.000000 0.000000 0.000000 0.000000 0.000000 0.000000 0.000000 
1.5849 196.433 3.016980 -0.120305 81.327553 0.300206 4.000000 89.859062 -0.002460 10000.000000 947.214569 2.000000 -0.316504 5.083496 -0.058070 10000.000000 947.214569 10.556027 -0.012653 0.166073 -6105.083496 1907.525024 -0.530053 0.058294 0.903186 89.859047 3259.411621 0.040729 0.039797 0.001750 0.001715 0.000000 0.000000 0.000000 0.000000 0.000000 0.000000 0.000000 0.000000 0.000000 0.000000 0.000000 0.000000 0.000000 0.000000 0.000000 0.000000 0.000000 0.000000 0.000000 0.000000 0.000000 
1.6016 196.45 3.016404 -0.118624 81.395927 0.300206 4.000000 89.846590 -0.002678 10000.000000 942.726143 2.000000 -0.316992 5.083008 -0.053673 10000.000000 942.726143 10.606296 -0.012316 0.166745 -6105.083008 1907.701416 -0.530060 0.058117 0.902980 89.846575 3272.721436 0.040719 0.039802 0.001754 0.001718 0.000000 0.000000 0.000000 0.000000 0.000000 0.000000 0.000000 0.000000 0.000000 0.000000 0.000000 0.000000 0.000000 0.000000 0.000000 0.000000 0.000000 0.000000 0.000000 0.000000 0.000000 
1.61827 196.467 3.015861 -0.116114 81.395927 0.300206 4.000000 89.834282 -0.002892 10000.000000 938.280809 2.000000 -0.317969 5.082031 -0.053673 10000.000000 938.280809 10.656555 -0.011945 0.167436 -6105.082031 1907.878662 -0.530067 0.057657 0.902831 89.834267 3286.038574 0.040708 0.039817 0.001758 0.001721 0.000000 0.000000 0.000000 0.000000 0.000000 0.000000 0.000000 0.000000 0.000000 0.000000 0.000000 0.000000 0.000000 0.000000 0.000000 0.000000 0.000000 0.000000 0.000000 0.000000 0.000000 
1.63497 196.483 3.015425 -0.113443 81.395927 0.300206 4.000000 89.822172 -0.003104 10000.000000 933.877618 2.000000 -0.318457 5.081543 -0.049433 10000.000000 933.877618 10.706809 -0.011553 0.168146 -6105.081543 1908.056641 -0.530077 0.056932 0.902736 89.822157 3299.324951 0.040697 0.039834 0.001761 0.001723 0.000000 0.000000 0.000000 0.000000 0.000000 0.000000 0.000000 0.000000 0.000000 0.000000 0.000000 0.000000 0.000000 0.000000 0.000000 0.000000 0.000000 0.000000 0.000000 0.000000 0.000000 
1.65163 196.5 3.015071 -0.110212 81.395927 0.442540 4.000000 89.810301 -0.003311 10000.000000 929.516055 2.000000 -0.319434 5.080566 -0.049433 10000.000000 929.516055 10.757057 -0.011139 0.168875 -6105.080566 1908.235596 -0.530087 0.055953 0.902689 89.810286 3312.583008 0.040684 0.039854 0.001762 0.001723 0.000000 0.000000 0.000000 0.000000 0.000000 0.000000 0.000000 0.000000 0.000000 0.000000 0.000000 0.000000 0.000000 0.000000 0.000000 0.000000 0.000000 0.000000 0.000000 0.000000 0.000000 
1.66833 196.517 3.014746 -0.107201 81.395927 0.442540 4.000000 89.799420 -0.003501 10000.000000 925.464347 2.000000 -0.319922 5.080078 -0.044879 10000.000000 925.464347 10.804160 -0.010735 0.169579 -6105.080078 1908.404053 -0.530097 0.054830 0.902682 89.799405 3324.994141 0.040671 0.039872 0.001762 0.001723 0.000000 0.000000 0.000000 0.000000 0.000000 0.000000 0.000000 0.000000 0.000000 0.000000 0.000000 0.000000 0.000000 0.000000 0.000000 0.000000 0.000000 0.000000 0.000000 0.000000 0.000000 
1.685 196.533 3.014346 -0.103300 81.395927 0.442540 4.000000 89.787413 -0.003710 10000.000000 920.915636 2.000000 -0.320898 5.079102 -0.041268 10000.000000 920.915636 10.857534 -0.010264 0.170402 -6105.079102 1908.595825 -0.530109 0.053322 0.902714 89.787398 3339.044189 0.040655 0.039893 0.001760 0.001721 0.000000 0.000000 0.000000 0.000000 0.000000 0.000000 0.000000 0.000000 0.000000 0.000000 0.000000 0.000000 0.000000 0.000000 0.000000 0.000000 0.000000 0.000000 0.000000 0.000000 0.000000 
1.7017 196.55 3.013950 -0.099900 81.395927 0.442540 4.000000 89.777140 -0.003890 10000.000000 916.939521 2.000000 -0.321875 5.078125 -0.041268 10000.000000 916.939521 10.904623 -0.009837 0.171147 -6105.078125 1908.765869 -0.530119 0.051808 0.902775 89.777125 3351.428223 0.040640 0.039912 0.001758 0.001718 0.000000 0.000000 0.000000 0.000000 0.000000 0.000000 0.000000 0.000000 0.000000 0.000000 0.000000 0.000000 0.000000 0.000000 0.000000 0.000000 0.000000 0.000000 0.000000 0.000000 0.000000 
1.71837 196.567 3.013485 -0.096252 81.395927 0.442540 4.000000 89.765870 -0.004086 10000.000000 912.475212 2.000000 -0.322852 5.077148 -0.038127 10000.000000 912.475212 10.957982 -0.009366 0.172011 -6105.077148 1908.959473 -0.530132 0.049914 0.902876 89.765856 3365.446289 0.040623 0.039934 0.001753 0.001713 0.000000 0.000000 0.000000 0.000000 0.000000 0.000000 0.000000 0.000000 0.000000 0.000000 0.000000 0.000000 0.000000 0.000000 0.000000 0.000000 0.000000 0.000000 0.000000 0.000000 0.000000 
1.73507 196.583 3.013054 -0.093105 81.327553 0.300206 4.000000 89.755646 -0.004265 10000.000000 908.313660 2.000000 -0.323340 5.076660 -0.038127 10000.000000 908.313660 11.008195 -0.008930 0.172841 -6105.076660 1909.142578 -0.530143 0.048010 0.902997 89.755631 3378.613281 0.040608 0.039953 0.001747 0.001708 0.000000 0.000000 0.000000 0.000000 0.000000 0.000000 0.000000 0.000000 0.000000 0.000000 0.000000 0.000000 0.000000 0.000000 0.000000 0.000000 0.000000 0.000000 0.000000 0.000000 0.000000 
1.75173 196.6 3.012629 -0.090261 81.327553 0.300206 4.000000 89.745797 -0.004437 10000.000000 904.190440 2.000000 -0.324316 5.075684 -0.035928 10000.000000 904.190440 11.058400 -0.008519 0.173682 -6105.075684 1909.326416 -0.530154 0.046034 0.903137 89.745782 3391.733154 0.040592 0.039970 0.001739 0.001701 0.000000 0.000000 0.000000 0.000000 0.000000 0.000000 0.000000 0.000000 0.000000 0.000000 0.000000 0.000000 0.000000 0.000000 0.000000 0.000000 0.000000 0.000000 0.000000 0.000000 0.000000 
1.76843 196.617 3.012144 -0.087645 81.327553 0.300206 4.000000 89.736330 -0.004602 10000.000000 900.105335 2.000000 -0.325293 5.074707 -0.035928 10000.000000 900.105335 11.108596 -0.008129 0.174531 -6105.074707 1909.511230 -0.530165 0.044038 0.903291 89.736315 3404.843750 0.040575 0.039983 0.001731 0.001694 0.000000 0.000000 0.000000 0.000000 0.000000 0.000000 0.000000 0.000000 0.000000 0.000000 0.000000 0.000000 0.000000 0.000000 0.000000 0.000000 0.000000 0.000000 0.000000 0.000000 0.000000 
1.7851 196.633 3.011583 -0.085524 81.395927 0.442540 4.000000 89.727225 -0.004761 10000.000000 896.057743 2.000000 -0.326270 5.073730 -0.034515 10000.000000 896.057743 11.158781 -0.007776 0.175384 -6105.073730 1909.696777 -0.530175 0.042079 0.903451 89.727210 3417.866211 0.040558 0.039993 0.001722 0.001686 0.000000 0.000000 0.000000 0.000000 0.000000 0.000000 0.000000 0.000000 0.000000 0.000000 0.000000 0.000000 0.000000 0.000000 0.000000 0.000000 0.000000 0.000000 0.000000 0.000000 0.000000 
1.8018 196.65 3.010881 -0.083718 81.395927 0.442540 4.000000 89.718476 -0.004914 10000.000000 892.047528 2.000000 -0.327734 5.072266 -0.034515 10000.000000 892.047528 11.208952 -0.007456 0.176236 -6105.072266 1909.883179 -0.530184 0.040211 0.903611 89.718461 3430.833496 0.040537 0.039995 0.001712 0.001678 0.000000 0.000000 0.000000 0.000000 0.000000 0.000000 0.000000 0.000000 0.000000 0.000000 0.000000 0.000000 0.000000 0.000000 0.000000 0.000000 0.000000 0.000000 0.000000 0.000000 0.000000 
1.81847 196.667 3.009933 -0.082356 81.395927 0.442540 4.000000 89.710061 -0.005060 10000.000000 888.074703 2.000000 -0.328711 5.071289 -0.034044 10000.000000 888.074703 11.259103 -0.007177 0.177083 -6105.071289 1910.070435 -0.530193 0.038486 0.903760 89.710046 3443.743652 0.040514 0.039990 0.001702 0.001669 0.000000 0.000000 0.000000 0.000000 0.000000 0.000000 0.000000 0.000000 0.000000 0.000000 0.000000 0.000000 0.000000 0.000000 0.000000 0.000000 0.000000 0.000000 0.000000 0.000000 0.000000 
1.83517 196.683 3.008693 -0.081409 81.395927 0.442540 4.000000 89.701947 -0.005202 10000.000000 884.139046 2.000000 -0.329687 5.070313 -0.034044 10000.000000 884.139046 11.309229 -0.006939 0.177921 -6105.070313 1910.258545 -0.530202 0.036953 0.903889 89.701932 3456.624512 0.040489 0.039978 0.001691 0.001660 0.000000 0.000000 0.000000 0.000000 0.000000 0.000000 0.000000 0.000000 0.000000 0.000000 0.000000 0.000000 0.000000 0.000000 0.000000 0.000000 0.000000 0.000000 0.000000 0.000000 0.000000 
1.85183 196.7 3.007205 -0.080890 81.327553 0.300206 4.000000 89.694106 -0.005339 10000.000000 880.240261 2.000000 -0.330664 5.069336 -0.034044 10000.000000 880.240261 11.359327 -0.006744 0.178746 -6105.069336 1910.447510 -0.530210 0.035653 0.903987 89.694091 3469.478027 0.040465 0.039961 0.001681 0.001652 0.000000 0.000000 0.000000 0.000000 0.000000 0.000000 0.000000 0.000000 0.000000 0.000000 0.000000 0.000000 0.000000 0.000000 0.000000 0.000000 0.000000 0.000000 0.000000 0.000000 0.000000 
1.86853 196.717 3.005559 -0.080685 81.327553 0.300206 4.000000 89.686504 -0.005472 10000.000000 876.377907 2.000000 -0.332129 5.067871 -0.034044 10000.000000 876.377907 11.409397 -0.006588 0.179555 -6105.067871 1910.637207 -0.530219 0.034620 0.904045 89.686489 3482.290527 0.040441 0.039939 0.001671 0.001644 0.000000 0.000000 0.000000 0.000000 0.000000 0.000000 0.000000 0.000000 0.000000 0.000000 0.000000 0.000000 0.000000 0.000000 0.000000 0.000000 0.000000 0.000000 0.000000 0.000000 0.000000 
1.8852 196.733 3.003803 -0.080674 81.395927 0.300206 4.000000 89.679100 -0.005601 10000.000000 872.551696 2.000000 -0.333105 5.066895 -0.034201 10000.000000 872.551696 11.459436 -0.006467 0.180347 -6105.066895 1910.827881 -0.530227 0.033870 0.904054 89.679085 3495.112061 0.040418 0.039914 0.001662 0.001637 0.000000 0.000000 0.000000 0.000000 0.000000 0.000000 0.000000 0.000000 0.000000 0.000000 0.000000 0.000000 0.000000 0.000000 0.000000 0.000000 0.000000 0.000000 0.000000 0.000000 0.000000 
1.9019 196.75 3.002018 -0.080752 81.395927 0.300206 4.000000 89.671853 -0.005727 10000.000000 868.761053 2.000000 -0.334082 5.065918 -0.034201 10000.000000 868.761053 11.509446 -0.006371 0.181127 -6105.065918 1911.019287 -0.530235 0.033403 0.904008 89.671838 3507.947998 0.040401 0.039889 0.001654 0.001631 0.000000 0.000000 0.000000 0.000000 0.000000 0.000000 0.000000 0.000000 0.000000 0.000000 0.000000 0.000000 0.000000 0.000000 0.000000 0.000000 0.000000 0.000000 0.000000 0.000000 0.000000 
1.91857 196.767 3.000425 -0.080808 81.395927 0.300206 4.000000 89.665180 -0.005844 10000.000000 865.238888 2.000000 -0.335547 5.064453 -0.034201 10000.000000 865.238888 11.556306 -0.006299 0.181849 -6105.064453 1911.199463 -0.530243 0.033195 0.903915 89.665165 3519.946777 0.040389 0.039867 0.001648 0.001625 0.000000 0.000000 0.000000 0.000000 0.000000 0.000000 0.000000 0.000000 0.000000 0.000000 0.000000 0.000000 0.000000 0.000000 0.000000 0.000000 0.000000 0.000000 0.000000 0.000000 0.000000 
1.93527 196.783 2.998744 -0.080817 81.395927 0.442540 4.000000 89.657714 -0.005974 10000.000000 861.283383 2.000000 -0.336523 5.063477 -0.034044 10000.000000 861.283383 11.609388 -0.006230 0.182657 -6105.063477 1911.404663 -0.530251 0.033189 0.903752 89.657700 3533.503418 0.040377 0.039841 0.001642 0.001620 0.000000 0.000000 0.000000 0.000000 0.000000 0.000000 0.000000 0.000000 0.000000 0.000000 0.000000 0.000000 0.000000 0.000000 0.000000 0.000000 0.000000 0.000000 0.000000 0.000000 0.000000 
1.95193 196.8 2.997205 -0.080725 81.395927 0.442540 4.000000 89.650761 -0.006095 10000.000000 857.595488 2.000000 -0.337988 5.062012 -0.034044 10000.000000 857.595488 11.659322 -0.006169 0.183410 -6105.062012 1911.598511 -0.530259 0.033356 0.903546 89.650746 3546.230469 0.040364 0.039816 0.001637 0.001616 0.000000 0.000000 0.000000 0.000000 0.000000 0.000000 0.000000 0.000000 0.000000 0.000000 0.000000 0.000000 0.000000 0.000000 0.000000 0.000000 0.000000 0.000000 0.000000 0.000000 0.000000 
1.96863 196.817 2.995637 -0.080575 81.395927 0.442540 4.000000 89.643863 -0.006216 10000.000000 853.940988 2.000000 -0.339453 5.060547 -0.033573 10000.000000 853.940988 11.709228 -0.006109 0.184156 -6105.060547 1911.793335 -0.530267 0.033641 0.903292 89.643848 3558.933838 0.040349 0.039789 0.001634 0.001613 0.000000 0.000000 0.000000 0.000000 0.000000 0.000000 0.000000 0.000000 0.000000 0.000000 0.000000 0.000000 0.000000 0.000000 0.000000 0.000000 0.000000 0.000000 0.000000 0.000000 0.000000 
1.9853 196.833 2.994023 -0.080290 81.430107 0.442540 4.000000 89.636985 -0.006336 10000.000000 850.319433 2.000000 -0.340430 5.059570 -0.033573 10000.000000 850.319433 11.759108 -0.006041 0.184894 -6105.059570 1911.988892 -0.530275 0.033996 0.902993 89.636970 3571.622070 0.040333 0.039763 0.001631 0.001611 0.000000 0.000000 0.000000 0.000000 0.000000 0.000000 0.000000 0.000000 0.000000 0.000000 0.000000 0.000000 0.000000 0.000000 0.000000 0.000000 0.000000 0.000000 0.000000 0.000000 0.000000 
