VidTime SimTime LonAccel LatAccel Throttle Brake Gear Heading HeadingError HeadwayDistance HeadwayTime Lane LaneOffset RoadOffset Steer TailwayDistance TailwayTime Velocity LatVelocity VertVelocity XPos YPos ZPos Roll Pitch Yaw EngineRPM SlipFR SlipFL SlipRR SlipRL User1 User2 User3 User4 User5 User6 User7 User8 User9 User10 User11 User12 User13 User14 User15 User16 User17 User18 User19 User20 User21 
0.0166666 364.117 1.789178 -0.019590 12.162855 0.000000 4.000000 89.839807 -0.002791 10000.000000 2612.358625 -2.000000 -0.547980 -4.852020 -0.054380 10000.000000 2612.358625 3.827847 -0.007631 0.033693 -6104.851563 1893.826172 -0.530859 0.009153 0.525023 89.839792 1524.453979 0.022395 0.022321 0.001003 0.000976 0.000000 0.000000 0.000000 0.000000 0.000000 0.000000 0.000000 0.000000 0.000000 0.000000 0.000000 0.000000 0.000000 0.000000 0.000000 0.000000 0.000000 0.000000 0.000000 0.000000 0.000000 
0.0333667 364.133 1.778683 -0.019988 12.162855 0.000000 4.000000 89.835245 -0.002871 10000.000000 2592.378625 -2.000000 -0.547979 -4.852021 -0.055479 10000.000000 2592.378625 3.857346 -0.007668 0.034384 -6104.851563 1893.890259 -0.530876 0.008976 0.521947 89.835230 1527.136230 0.022252 0.022178 0.000999 0.000971 0.000000 0.000000 0.000000 0.000000 0.000000 0.000000 0.000000 0.000000 0.000000 0.000000 0.000000 0.000000 0.000000 0.000000 0.000000 0.000000 0.000000 0.000000 0.000000 0.000000 0.000000 
0.0500333 364.15 1.767521 -0.020654 12.162855 0.000000 4.000000 89.830662 -0.002951 10000.000000 2572.834493 -2.000000 -0.548467 -4.851533 -0.055479 10000.000000 2572.834493 3.886646 -0.007716 0.035023 -6104.851074 1893.954834 -0.530884 0.008853 0.518506 89.830647 1529.943359 0.022089 0.022014 0.000993 0.000965 0.000000 0.000000 0.000000 0.000000 0.000000 0.000000 0.000000 0.000000 0.000000 0.000000 0.000000 0.000000 0.000000 0.000000 0.000000 0.000000 0.000000 0.000000 0.000000 0.000000 0.000000 
0.0667333 364.167 1.755213 -0.021431 12.128675 0.000000 4.000000 89.826044 -0.003031 10000.000000 2553.727438 -2.000000 -0.548955 -4.851045 -0.056578 10000.000000 2553.727438 3.915725 -0.007774 0.035604 -6104.850586 1894.019775 -0.530882 0.008800 0.514701 89.826030 1532.684937 0.021912 0.021837 0.000987 0.000958 0.000000 0.000000 0.000000 0.000000 0.000000 0.000000 0.000000 0.000000 0.000000 0.000000 0.000000 0.000000 0.000000 0.000000 0.000000 0.000000 0.000000 0.000000 0.000000 0.000000 0.000000 
0.0833999 364.183 1.741882 -0.022354 12.128675 0.000000 4.000000 89.821386 -0.003113 10000.000000 2535.053152 -2.000000 -0.548955 -4.851045 -0.056578 10000.000000 2535.053152 3.944569 -0.007843 0.036119 -6104.850586 1894.085327 -0.530870 0.008834 0.510533 89.821371 1535.556519 0.021727 0.021652 0.000981 0.000951 0.000000 0.000000 0.000000 0.000000 0.000000 0.000000 0.000000 0.000000 0.000000 0.000000 0.000000 0.000000 0.000000 0.000000 0.000000 0.000000 0.000000 0.000000 0.000000 0.000000 0.000000 
0.1001 364.2 1.727926 -0.023351 12.128675 0.000000 4.000000 89.816680 -0.003195 10000.000000 2516.801462 -2.000000 -0.549443 -4.850557 -0.057677 10000.000000 2516.801462 3.973175 -0.007925 0.036563 -6104.850098 1894.151245 -0.530850 0.008962 0.506007 89.816665 1538.728271 0.021541 0.021464 0.000975 0.000945 0.000000 0.000000 0.000000 0.000000 0.000000 0.000000 0.000000 0.000000 0.000000 0.000000 0.000000 0.000000 0.000000 0.000000 0.000000 0.000000 0.000000 0.000000 0.000000 0.000000 0.000000 
0.116767 364.217 1.713945 -0.024393 12.128675 0.000000 4.000000 89.811913 -0.003278 10000.000000 2498.954078 -2.000000 -0.549931 -4.850069 -0.057677 10000.000000 2498.954078 4.001552 -0.008017 0.036931 -6104.849609 1894.217773 -0.530821 0.009189 0.501135 89.811898 1542.129883 0.021368 0.021288 0.000969 0.000938 0.000000 0.000000 0.000000 0.000000 0.000000 0.000000 0.000000 0.000000 0.000000 0.000000 0.000000 0.000000 0.000000 0.000000 0.000000 0.000000 0.000000 0.000000 0.000000 0.000000 0.000000 
0.133467 364.233 1.700485 -0.025425 11.923587 0.000000 4.000000 89.807084 -0.003362 10000.000000 2481.492801 -2.000000 -0.550419 -4.849581 -0.058777 10000.000000 2481.492801 4.029711 -0.008120 0.037221 -6104.849121 1894.284668 -0.530786 0.009512 0.495940 89.807069 1543.870483 0.021180 0.021098 0.000963 0.000932 0.000000 0.000000 0.000000 0.000000 0.000000 0.000000 0.000000 0.000000 0.000000 0.000000 0.000000 0.000000 0.000000 0.000000 0.000000 0.000000 0.000000 0.000000 0.000000 0.000000 0.000000 
0.150133 364.25 1.685756 -0.026423 11.923587 0.000000 4.000000 89.802180 -0.003448 10000.000000 2464.442969 -2.000000 -0.550418 -4.849582 -0.059562 10000.000000 2464.442969 4.057593 -0.008230 0.037425 -6104.849121 1894.352051 -0.530743 0.009925 0.490440 89.802165 1545.028198 0.020947 0.020863 0.000955 0.000923 0.000000 0.000000 0.000000 0.000000 0.000000 0.000000 0.000000 0.000000 0.000000 0.000000 0.000000 0.000000 0.000000 0.000000 0.000000 0.000000 0.000000 0.000000 0.000000 0.000000 0.000000 
0.166833 364.267 1.668809 -0.027331 11.786865 0.000000 4.000000 89.797194 -0.003535 10000.000000 2447.813241 -2.000000 -0.550906 -4.849094 -0.059562 10000.000000 2447.813241 4.085163 -0.008347 0.037541 -6104.848633 1894.419922 -0.530696 0.010411 0.484641 89.797179 1545.657715 0.020695 0.020608 0.000947 0.000913 0.000000 0.000000 0.000000 0.000000 0.000000 0.000000 0.000000 0.000000 0.000000 0.000000 0.000000 0.000000 0.000000 0.000000 0.000000 0.000000 0.000000 0.000000 0.000000 0.000000 0.000000 
0.1835 364.283 1.649687 -0.028126 11.786865 0.000000 4.000000 89.792119 -0.003623 10000.000000 2431.612803 -2.000000 -0.551394 -4.848606 -0.060033 10000.000000 2431.612803 4.112384 -0.008465 0.037564 -6104.848145 1894.488281 -0.530644 0.010954 0.478548 89.792104 1546.468994 0.020423 0.020334 0.000938 0.000902 0.000000 0.000000 0.000000 0.000000 0.000000 0.000000 0.000000 0.000000 0.000000 0.000000 0.000000 0.000000 0.000000 0.000000 0.000000 0.000000 0.000000 0.000000 0.000000 0.000000 0.000000 
0.2002 364.3 1.629359 -0.028798 11.786865 0.000000 4.000000 89.786948 -0.003714 10000.000000 2415.827140 -2.000000 -0.551882 -4.848118 -0.060033 10000.000000 2415.827140 4.139261 -0.008585 0.037498 -6104.847656 1894.557007 -0.530589 0.011531 0.472165 89.786934 1548.190674 0.020170 0.020078 0.000930 0.000892 0.000000 0.000000 0.000000 0.000000 0.000000 0.000000 0.000000 0.000000 0.000000 0.000000 0.000000 0.000000 0.000000 0.000000 0.000000 0.000000 0.000000 0.000000 0.000000 0.000000 0.000000 
0.216867 364.317 1.609714 -0.029327 11.786865 0.000000 4.000000 89.781689 -0.003805 10000.000000 2400.422316 -2.000000 -0.552370 -4.847630 -0.060190 10000.000000 2400.422316 4.165831 -0.008702 0.037348 -6104.847168 1894.626221 -0.530532 0.012118 0.465512 89.781674 1550.638794 0.019949 0.019855 0.000924 0.000884 0.000000 0.000000 0.000000 0.000000 0.000000 0.000000 0.000000 0.000000 0.000000 0.000000 0.000000 0.000000 0.000000 0.000000 0.000000 0.000000 0.000000 0.000000 0.000000 0.000000 0.000000 
0.233567 364.333 1.591995 -0.029716 11.684326 0.000000 4.000000 89.776334 -0.003899 10000.000000 2385.364365 -2.000000 -0.552370 -4.847630 -0.060190 10000.000000 2385.364365 4.192135 -0.008814 0.037118 -6104.847168 1894.695923 -0.530473 0.012691 0.458625 89.776319 1552.674561 0.019747 0.019652 0.000920 0.000876 0.000000 0.000000 0.000000 0.000000 0.000000 0.000000 0.000000 0.000000 0.000000 0.000000 0.000000 0.000000 0.000000 0.000000 0.000000 0.000000 0.000000 0.000000 0.000000 0.000000 0.000000 
0.250233 364.35 1.575666 -0.029966 11.684326 0.000000 4.000000 89.770897 -0.003994 10000.000000 2370.640195 -2.000000 -0.552858 -4.847142 -0.060033 10000.000000 2370.640195 4.218180 -0.008920 0.036815 -6104.846680 1894.765991 -0.530414 0.013227 0.451551 89.770883 1554.669434 0.019547 0.019451 0.000916 0.000869 0.000000 0.000000 0.000000 0.000000 0.000000 0.000000 0.000000 0.000000 0.000000 0.000000 0.000000 0.000000 0.000000 0.000000 0.000000 0.000000 0.000000 0.000000 0.000000 0.000000 0.000000 
0.266933 364.367 1.560098 -0.030071 11.581783 0.000000 4.000000 89.765372 -0.004090 10000.000000 2356.236456 -2.000000 -0.553346 -4.846654 -0.060033 10000.000000 2356.236456 4.243974 -0.009017 0.036442 -6104.846191 1894.836548 -0.530354 0.013706 0.444339 89.765357 1556.120361 0.019347 0.019252 0.000912 0.000861 0.000000 0.000000 0.000000 0.000000 0.000000 0.000000 0.000000 0.000000 0.000000 0.000000 0.000000 0.000000 0.000000 0.000000 0.000000 0.000000 0.000000 0.000000 0.000000 0.000000 0.000000 
0.2836 364.383 1.544544 -0.030072 11.581783 0.000000 4.000000 89.759764 -0.004188 10000.000000 2342.151335 -2.000000 -0.553834 -4.846166 -0.059876 10000.000000 2342.151335 4.269504 -0.009105 0.036003 -6104.845703 1894.907471 -0.530296 0.014110 0.437034 89.759749 1557.680542 0.019142 0.019047 0.000909 0.000853 0.000000 0.000000 0.000000 0.000000 0.000000 0.000000 0.000000 0.000000 0.000000 0.000000 0.000000 0.000000 0.000000 0.000000 0.000000 0.000000 0.000000 0.000000 0.000000 0.000000 0.000000 
0.3003 364.4 1.528996 -0.029996 11.581783 0.000000 4.000000 89.754095 -0.004287 10000.000000 2328.372162 -2.000000 -0.554322 -4.845678 -0.059876 10000.000000 2328.372162 4.294779 -0.009183 0.035504 -6104.845215 1894.978760 -0.530240 0.014426 0.429682 89.754080 1559.780151 0.018952 0.018858 0.000906 0.000845 0.000000 0.000000 0.000000 0.000000 0.000000 0.000000 0.000000 0.000000 0.000000 0.000000 0.000000 0.000000 0.000000 0.000000 0.000000 0.000000 0.000000 0.000000 0.000000 0.000000 0.000000 
0.316967 364.417 1.514231 -0.029888 11.581783 0.000000 4.000000 89.748365 -0.004387 10000.000000 2314.878090 -2.000000 -0.554810 -4.845190 -0.059719 10000.000000 2314.878090 4.319824 -0.009252 0.034951 -6104.844727 1895.050659 -0.530187 0.014649 0.422329 89.748350 1562.295044 0.018782 0.018689 0.000905 0.000839 0.000000 0.000000 0.000000 0.000000 0.000000 0.000000 0.000000 0.000000 0.000000 0.000000 0.000000 0.000000 0.000000 0.000000 0.000000 0.000000 0.000000 0.000000 0.000000 0.000000 0.000000 
0.333667 364.417 1.514231 -0.029888 11.581783 0.000000 4.000000 89.748365 -0.004387 10000.000000 2314.878090 -2.000000 -0.554810 -4.845190 -0.059719 10000.000000 2314.878090 4.319824 -0.009252 0.034951 -6104.844727 1895.050659 -0.530187 0.014649 0.422329 89.748350 1562.295044 0.018782 0.018689 0.000905 0.000839 0.000000 0.000000 0.000000 0.000000 0.000000 0.000000 0.000000 0.000000 0.000000 0.000000 0.000000 0.000000 0.000000 0.000000 0.000000 0.000000 0.000000 0.000000 0.000000 0.000000 0.000000 
0.350333 364.45 1.485371 -0.029656 11.308336 0.000000 4.000000 89.736774 -0.004589 10000.000000 2288.735903 -2.000000 -0.555785 -4.844215 -0.059562 10000.000000 2288.735903 4.369184 -0.009367 0.033708 -6104.843750 1895.195435 -0.530091 0.014818 0.407815 89.736759 1562.065918 0.018356 0.018267 0.000898 0.000821 0.000000 0.000000 0.000000 0.000000 0.000000 0.000000 0.000000 0.000000 0.000000 0.000000 0.000000 0.000000 0.000000 0.000000 0.000000 0.000000 0.000000 0.000000 0.000000 0.000000 0.000000 
0.367033 364.467 1.467814 -0.029550 11.274157 0.000000 4.000000 89.730927 -0.004691 10000.000000 2276.126316 -2.000000 -0.556273 -4.843727 -0.059562 10000.000000 2276.126316 4.393398 -0.009415 0.033024 -6104.843262 1895.268433 -0.530050 0.014776 0.400703 89.730912 1562.350708 0.018118 0.018032 0.000893 0.000811 0.000000 0.000000 0.000000 0.000000 0.000000 0.000000 0.000000 0.000000 0.000000 0.000000 0.000000 0.000000 0.000000 0.000000 0.000000 0.000000 0.000000 0.000000 0.000000 0.000000 0.000000 
0.3837 364.483 1.449331 -0.029480 11.274157 0.000000 4.000000 89.725067 -0.004794 10000.000000 2263.814474 -2.000000 -0.556761 -4.843239 -0.059562 10000.000000 2263.814474 4.417302 -0.009458 0.032306 -6104.842773 1895.341919 -0.530015 0.014667 0.393706 89.725052 1563.400391 0.017897 0.017814 0.000889 0.000802 0.000000 0.000000 0.000000 0.000000 0.000000 0.000000 0.000000 0.000000 0.000000 0.000000 0.000000 0.000000 0.000000 0.000000 0.000000 0.000000 0.000000 0.000000 0.000000 0.000000 0.000000 
0.4004 364.5 1.430503 -0.029457 11.274157 0.000000 4.000000 89.718824 -0.004903 10000.000000 2251.031863 -2.000000 -0.557249 -4.842751 -0.059562 10000.000000 2251.031863 4.442396 -0.009501 0.031519 -6104.842285 1895.420288 -0.529984 0.014495 0.386417 89.718809 1565.323853 0.017695 0.017615 0.000885 0.000793 0.000000 0.000000 0.000000 0.000000 0.000000 0.000000 0.000000 0.000000 0.000000 0.000000 0.000000 0.000000 0.000000 0.000000 0.000000 0.000000 0.000000 0.000000 0.000000 0.000000 0.000000 
0.417067 364.517 1.415620 -0.029476 11.239973 0.000000 4.000000 89.713312 -0.004999 10000.000000 2239.983184 -2.000000 -0.557737 -4.842263 -0.059562 10000.000000 2239.983184 4.464316 -0.009536 0.030814 -6104.841797 1895.489868 -0.529962 0.014310 0.380134 89.713297 1567.165039 0.017541 0.017463 0.000882 0.000787 0.000000 0.000000 0.000000 0.000000 0.000000 0.000000 0.000000 0.000000 0.000000 0.000000 0.000000 0.000000 0.000000 0.000000 0.000000 0.000000 0.000000 0.000000 0.000000 0.000000 0.000000 
0.433767 364.533 1.401596 -0.029525 11.239973 0.000000 4.000000 89.707425 -0.005102 10000.000000 2228.417134 -2.000000 -0.558225 -4.841775 -0.059719 10000.000000 2228.417134 4.487497 -0.009573 0.030060 -6104.841309 1895.564453 -0.529946 0.014095 0.373619 89.707410 1569.372803 0.017395 0.017319 0.000879 0.000781 0.000000 0.000000 0.000000 0.000000 0.000000 0.000000 0.000000 0.000000 0.000000 0.000000 0.000000 0.000000 0.000000 0.000000 0.000000 0.000000 0.000000 0.000000 0.000000 0.000000 0.000000 
0.450433 364.55 1.389275 -0.029615 11.239973 0.000000 4.000000 89.701544 -0.005204 10000.000000 2217.059677 -2.000000 -0.558713 -4.841287 -0.059719 10000.000000 2217.059677 4.510494 -0.009610 0.029313 -6104.840820 1895.639526 -0.529936 0.013878 0.367331 89.701529 1571.838989 0.017268 0.017193 0.000875 0.000776 0.000000 0.000000 0.000000 0.000000 0.000000 0.000000 0.000000 0.000000 0.000000 0.000000 0.000000 0.000000 0.000000 0.000000 0.000000 0.000000 0.000000 0.000000 0.000000 0.000000 0.000000 
0.467133 364.567 1.378494 -0.029731 11.239973 0.000000 4.000000 89.695656 -0.005307 10000.000000 2205.895130 -2.000000 -0.559201 -4.840799 -0.059719 10000.000000 2205.895130 4.533332 -0.009646 0.028581 -6104.840332 1895.714844 -0.529932 0.013673 0.361304 89.695641 1574.445313 0.017157 0.017083 0.000872 0.000772 0.000000 0.000000 0.000000 0.000000 0.000000 0.000000 0.000000 0.000000 0.000000 0.000000 0.000000 0.000000 0.000000 0.000000 0.000000 0.000000 0.000000 0.000000 0.000000 0.000000 0.000000 
0.4838 364.583 1.369001 -0.029843 11.239973 0.000000 4.000000 89.689775 -0.005410 10000.000000 2194.910918 -2.000000 -0.560177 -4.839823 -0.059719 10000.000000 2194.910918 4.556027 -0.009681 0.027872 -6104.839355 1895.790649 -0.529936 0.013492 0.355574 89.689760 1577.103638 0.017057 0.016984 0.000868 0.000768 0.000000 0.000000 0.000000 0.000000 0.000000 0.000000 0.000000 0.000000 0.000000 0.000000 0.000000 0.000000 0.000000 0.000000 0.000000 0.000000 0.000000 0.000000 0.000000 0.000000 0.000000 
0.5005 364.6 1.360535 -0.029932 11.239973 0.000000 4.000000 89.683881 -0.005512 10000.000000 2184.096514 -2.000000 -0.560665 -4.839335 -0.059562 10000.000000 2184.096514 4.578595 -0.009715 0.027190 -6104.838867 1895.866699 -0.529946 0.013343 0.350170 89.683866 1579.770142 0.016968 0.016895 0.000864 0.000765 0.000000 0.000000 0.000000 0.000000 0.000000 0.000000 0.000000 0.000000 0.000000 0.000000 0.000000 0.000000 0.000000 0.000000 0.000000 0.000000 0.000000 0.000000 0.000000 0.000000 0.000000 
0.517167 364.617 1.352730 -0.029968 11.239973 0.000000 4.000000 89.677986 -0.005615 10000.000000 2173.447168 -2.000000 -0.561153 -4.838847 -0.059562 10000.000000 2173.447168 4.601037 -0.009745 0.026542 -6104.838379 1895.943237 -0.529962 0.013229 0.345116 89.677972 1582.468750 0.016878 0.016805 0.000859 0.000761 0.000000 0.000000 0.000000 0.000000 0.000000 0.000000 0.000000 0.000000 0.000000 0.000000 0.000000 0.000000 0.000000 0.000000 0.000000 0.000000 0.000000 0.000000 0.000000 0.000000 0.000000 
0.533867 364.633 1.345116 -0.029974 11.239973 0.000000 4.000000 89.672071 -0.005719 10000.000000 2162.959837 -2.000000 -0.561641 -4.838359 -0.059562 10000.000000 2162.959837 4.623353 -0.009772 0.025932 -6104.837891 1896.020020 -0.529985 0.013151 0.340427 89.672057 1585.213379 0.016789 0.016717 0.000854 0.000757 0.000000 0.000000 0.000000 0.000000 0.000000 0.000000 0.000000 0.000000 0.000000 0.000000 0.000000 0.000000 0.000000 0.000000 0.000000 0.000000 0.000000 0.000000 0.000000 0.000000 0.000000 
0.550533 364.65 1.337584 -0.029977 11.239973 0.000000 4.000000 89.666150 -0.005822 10000.000000 2152.630674 -2.000000 -0.562129 -4.837871 -0.059562 10000.000000 2152.630674 4.645545 -0.009796 0.025363 -6104.837402 1896.097290 -0.530014 0.013106 0.336109 89.666135 1587.998535 0.016704 0.016632 0.000849 0.000754 0.000000 0.000000 0.000000 0.000000 0.000000 0.000000 0.000000 0.000000 0.000000 0.000000 0.000000 0.000000 0.000000 0.000000 0.000000 0.000000 0.000000 0.000000 0.000000 0.000000 0.000000 
0.567233 364.667 1.330188 -0.029997 11.239973 0.000000 4.000000 89.660207 -0.005926 10000.000000 2142.455288 -2.000000 -0.563105 -4.836895 -0.059562 10000.000000 2142.455288 4.667616 -0.009816 0.024839 -6104.836426 1896.174927 -0.530048 0.013094 0.332164 89.660193 1590.809448 0.016622 0.016550 0.000843 0.000750 0.000000 0.000000 0.000000 0.000000 0.000000 0.000000 0.000000 0.000000 0.000000 0.000000 0.000000 0.000000 0.000000 0.000000 0.000000 0.000000 0.000000 0.000000 0.000000 0.000000 0.000000 
0.5839 364.683 1.322984 -0.030049 11.239973 0.000000 4.000000 89.654238 -0.006030 10000.000000 2132.428986 -2.000000 -0.563593 -4.836407 -0.059562 10000.000000 2132.428986 4.689570 -0.009834 0.024363 -6104.835938 1896.252930 -0.530088 0.013111 0.328585 89.654223 1593.629883 0.016544 0.016472 0.000837 0.000746 0.000000 0.000000 0.000000 0.000000 0.000000 0.000000 0.000000 0.000000 0.000000 0.000000 0.000000 0.000000 0.000000 0.000000 0.000000 0.000000 0.000000 0.000000 0.000000 0.000000 0.000000 
0.6006 364.7 1.315990 -0.030124 11.239973 0.000000 4.000000 89.648241 -0.006134 10000.000000 2122.547216 -2.000000 -0.564081 -4.835919 -0.059405 10000.000000 2122.547216 4.711410 -0.009848 0.023939 -6104.835449 1896.331299 -0.530132 0.013154 0.325363 89.648226 1596.445557 0.016470 0.016397 0.000832 0.000742 0.000000 0.000000 0.000000 0.000000 0.000000 0.000000 0.000000 0.000000 0.000000 0.000000 0.000000 0.000000 0.000000 0.000000 0.000000 0.000000 0.000000 0.000000 0.000000 0.000000 0.000000 
0.617267 364.717 1.308761 -0.030221 11.239973 0.000000 4.000000 89.641848 -0.006246 10000.000000 2112.202073 -2.000000 -0.565057 -4.834943 -0.059405 10000.000000 2112.202073 4.734492 -0.009861 0.023552 -6104.834473 1896.414917 -0.530185 0.013223 0.322313 89.641833 1599.420166 0.016394 0.016320 0.000826 0.000738 0.000000 0.000000 0.000000 0.000000 0.000000 0.000000 0.000000 0.000000 0.000000 0.000000 0.000000 0.000000 0.000000 0.000000 0.000000 0.000000 0.000000 0.000000 0.000000 0.000000 0.000000 
0.633967 364.733 1.302503 -0.030354 11.239973 0.000000 4.000000 89.636172 -0.006345 10000.000000 2103.202704 -2.000000 -0.565545 -4.834455 -0.059405 10000.000000 2103.202704 4.754756 -0.009870 0.023279 -6104.833984 1896.489014 -0.530234 0.013298 0.319916 89.636157 1602.035034 0.016332 0.016257 0.000821 0.000734 0.000000 0.000000 0.000000 0.000000 0.000000 0.000000 0.000000 0.000000 0.000000 0.000000 0.000000 0.000000 0.000000 0.000000 0.000000 0.000000 0.000000 0.000000 0.000000 0.000000 0.000000 
0.650633 364.75 1.296032 -0.030559 11.274157 0.000000 4.000000 89.630086 -0.006451 10000.000000 2093.731262 -2.000000 -0.566033 -4.833967 -0.059405 10000.000000 2093.731262 4.776271 -0.009880 0.023056 -6104.833496 1896.568481 -0.530290 0.013391 0.317633 89.630071 1605.215820 0.016273 0.016197 0.000816 0.000730 0.000000 0.000000 0.000000 0.000000 0.000000 0.000000 0.000000 0.000000 0.000000 0.000000 0.000000 0.000000 0.000000 0.000000 0.000000 0.000000 0.000000 0.000000 0.000000 0.000000 0.000000 
0.667333 364.767 1.290119 -0.030829 11.274157 0.000000 4.000000 89.623973 -0.006558 10000.000000 2084.383484 -2.000000 -0.567009 -4.832991 -0.059405 10000.000000 2084.383484 4.797697 -0.009890 0.022905 -6104.832520 1896.648193 -0.530348 0.013497 0.315602 89.623958 1608.442627 0.016223 0.016146 0.000812 0.000727 0.000000 0.000000 0.000000 0.000000 0.000000 0.000000 0.000000 0.000000 0.000000 0.000000 0.000000 0.000000 0.000000 0.000000 0.000000 0.000000 0.000000 0.000000 0.000000 0.000000 0.000000 
0.684 364.783 1.284823 -0.031160 11.274157 0.000000 4.000000 89.617826 -0.006665 10000.000000 2075.153300 -2.000000 -0.567497 -4.832503 -0.059405 10000.000000 2075.153300 4.819041 -0.009901 0.022821 -6104.832031 1896.728394 -0.530407 0.013614 0.313794 89.617811 1611.545410 0.016176 0.016098 0.000808 0.000724 0.000000 0.000000 0.000000 0.000000 0.000000 0.000000 0.000000 0.000000 0.000000 0.000000 0.000000 0.000000 0.000000 0.000000 0.000000 0.000000 0.000000 0.000000 0.000000 0.000000 0.000000 
0.7007 364.8 1.279834 -0.031539 11.239973 0.000000 4.000000 89.611645 -0.006773 10000.000000 2066.039511 -2.000000 -0.568473 -4.831527 -0.059405 10000.000000 2066.039511 4.840304 -0.009915 0.022798 -6104.831055 1896.808838 -0.530467 0.013744 0.312179 89.611630 1614.142944 0.016123 0.016044 0.000804 0.000720 0.000000 0.000000 0.000000 0.000000 0.000000 0.000000 0.000000 0.000000 0.000000 0.000000 0.000000 0.000000 0.000000 0.000000 0.000000 0.000000 0.000000 0.000000 0.000000 0.000000 0.000000 
0.717367 364.817 1.274536 -0.031949 11.239973 0.000000 4.000000 89.605436 -0.006882 10000.000000 2057.045778 -2.000000 -0.568961 -4.831039 -0.059248 10000.000000 2057.045778 4.861472 -0.009930 0.022829 -6104.830566 1896.889648 -0.530526 0.013888 0.310723 89.605421 1616.589722 0.016059 0.015980 0.000800 0.000717 0.000000 0.000000 0.000000 0.000000 0.000000 0.000000 0.000000 0.000000 0.000000 0.000000 0.000000 0.000000 0.000000 0.000000 0.000000 0.000000 0.000000 0.000000 0.000000 0.000000 0.000000 
0.734067 364.833 1.268687 -0.032346 11.239973 0.000000 4.000000 89.599200 -0.006990 10000.000000 2048.174215 -2.000000 -0.569937 -4.830063 -0.059248 10000.000000 2048.174215 4.882534 -0.009947 0.022907 -6104.829590 1896.970947 -0.530585 0.014043 0.309392 89.599185 1619.069946 0.015992 0.015911 0.000795 0.000713 0.000000 0.000000 0.000000 0.000000 0.000000 0.000000 0.000000 0.000000 0.000000 0.000000 0.000000 0.000000 0.000000 0.000000 0.000000 0.000000 0.000000 0.000000 0.000000 0.000000 0.000000 
0.750733 364.85 1.262467 -0.032735 11.239973 0.000000 4.000000 89.592937 -0.007100 10000.000000 2039.423269 -2.000000 -0.570425 -4.829575 -0.059248 10000.000000 2039.423269 4.903489 -0.009967 0.023022 -6104.829102 1897.052490 -0.530642 0.014210 0.308149 89.592922 1621.600342 0.015923 0.015842 0.000791 0.000709 0.000000 0.000000 0.000000 0.000000 0.000000 0.000000 0.000000 0.000000 0.000000 0.000000 0.000000 0.000000 0.000000 0.000000 0.000000 0.000000 0.000000 0.000000 0.000000 0.000000 0.000000 
0.767433 364.867 1.256125 -0.033125 11.239973 0.000000 4.000000 89.586646 -0.007210 10000.000000 2030.790636 -2.000000 -0.571401 -4.828599 -0.059248 10000.000000 2030.790636 4.924337 -0.009988 0.023168 -6104.828125 1897.134277 -0.530696 0.014386 0.306964 89.586631 1624.177612 0.015856 0.015774 0.000787 0.000706 0.000000 0.000000 0.000000 0.000000 0.000000 0.000000 0.000000 0.000000 0.000000 0.000000 0.000000 0.000000 0.000000 0.000000 0.000000 0.000000 0.000000 0.000000 0.000000 0.000000 0.000000 
0.7841 364.883 1.249845 -0.033515 11.239973 0.000000 4.000000 89.580335 -0.007320 10000.000000 2022.272702 -2.000000 -0.571889 -4.828111 -0.059248 10000.000000 2022.272702 4.945083 -0.010011 0.023337 -6104.827637 1897.216553 -0.530749 0.014568 0.305809 89.580320 1626.788208 0.015790 0.015707 0.000782 0.000703 0.000000 0.000000 0.000000 0.000000 0.000000 0.000000 0.000000 0.000000 0.000000 0.000000 0.000000 0.000000 0.000000 0.000000 0.000000 0.000000 0.000000 0.000000 0.000000 0.000000 0.000000 
0.8008 364.9 1.243728 -0.033898 11.239973 0.000000 4.000000 89.574004 -0.007430 10000.000000 2013.866536 -2.000000 -0.572865 -4.827135 -0.059248 10000.000000 2013.866536 4.965729 -0.010037 0.023524 -6104.826660 1897.299194 -0.530798 0.014757 0.304658 89.573989 1629.416016 0.015725 0.015642 0.000778 0.000700 0.000000 0.000000 0.000000 0.000000 0.000000 0.000000 0.000000 0.000000 0.000000 0.000000 0.000000 0.000000 0.000000 0.000000 0.000000 0.000000 0.000000 0.000000 0.000000 0.000000 0.000000 
0.817467 364.917 1.237805 -0.034267 11.239973 0.000000 4.000000 89.567652 -0.007541 10000.000000 2005.568324 -2.000000 -0.573841 -4.826159 -0.059248 10000.000000 2005.568324 4.986280 -0.010064 0.023723 -6104.825684 1897.382080 -0.530845 0.014948 0.303493 89.567637 1632.046387 0.015663 0.015578 0.000774 0.000697 0.000000 0.000000 0.000000 0.000000 0.000000 0.000000 0.000000 0.000000 0.000000 0.000000 0.000000 0.000000 0.000000 0.000000 0.000000 0.000000 0.000000 0.000000 0.000000 0.000000 0.000000 
0.834167 364.933 1.232068 -0.034618 11.239973 0.000000 4.000000 89.561279 -0.007652 10000.000000 1997.375504 -2.000000 -0.574329 -4.825671 -0.059248 10000.000000 1997.375504 5.006737 -0.010093 0.023928 -6104.825195 1897.465332 -0.530888 0.015139 0.302298 89.561264 1634.667969 0.015601 0.015516 0.000770 0.000694 0.000000 0.000000 0.000000 0.000000 0.000000 0.000000 0.000000 0.000000 0.000000 0.000000 0.000000 0.000000 0.000000 0.000000 0.000000 0.000000 0.000000 0.000000 0.000000 0.000000 0.000000 
0.850833 364.95 1.226489 -0.034928 11.239973 0.000000 4.000000 89.554886 -0.007764 10000.000000 1989.285387 -2.000000 -0.575305 -4.824695 -0.059091 10000.000000 1989.285387 5.027103 -0.010123 0.024135 -6104.824219 1897.548950 -0.530928 0.015329 0.301061 89.554871 1637.272827 0.015539 0.015454 0.000766 0.000692 0.000000 0.000000 0.000000 0.000000 0.000000 0.000000 0.000000 0.000000 0.000000 0.000000 0.000000 0.000000 0.000000 0.000000 0.000000 0.000000 0.000000 0.000000 0.000000 0.000000 0.000000 
0.867533 364.967 1.221020 -0.035182 11.239973 0.000000 4.000000 89.548479 -0.007876 10000.000000 1981.296106 -2.000000 -0.576281 -4.823719 -0.058934 10000.000000 1981.296106 5.047379 -0.010152 0.024338 -6104.823242 1897.632935 -0.530964 0.015511 0.299771 89.548464 1639.868408 0.015474 0.015388 0.000761 0.000689 0.000000 0.000000 0.000000 0.000000 0.000000 0.000000 0.000000 0.000000 0.000000 0.000000 0.000000 0.000000 0.000000 0.000000 0.000000 0.000000 0.000000 0.000000 0.000000 0.000000 0.000000 
0.8842 364.983 1.214474 -0.035384 11.239973 0.000000 4.000000 89.541649 -0.007995 10000.000000 1972.928899 -2.000000 -0.576769 -4.823231 -0.058934 10000.000000 1972.928899 5.068791 -0.010181 0.024545 -6104.822754 1897.722534 -0.530999 0.015694 0.298332 89.541634 1642.860229 0.015368 0.015282 0.000756 0.000685 0.000000 0.000000 0.000000 0.000000 0.000000 0.000000 0.000000 0.000000 0.000000 0.000000 0.000000 0.000000 0.000000 0.000000 0.000000 0.000000 0.000000 0.000000 0.000000 0.000000 0.000000 
0.9009 365 1.207019 -0.035524 11.239973 0.000000 4.000000 89.535611 -0.008100 10000.000000 1965.661805 -2.000000 -0.577745 -4.822255 -0.058934 10000.000000 1965.661805 5.087535 -0.010205 0.024712 -6104.821777 1897.801880 -0.531026 0.015842 0.296983 89.535596 1645.906128 0.015262 0.015176 0.000750 0.000681 0.000000 0.000000 0.000000 0.000000 0.000000 0.000000 0.000000 0.000000 0.000000 0.000000 0.000000 0.000000 0.000000 0.000000 0.000000 0.000000 0.000000 0.000000 0.000000 0.000000 0.000000 
0.917567 365.017 1.197992 -0.035667 11.239973 0.000000 4.000000 89.529150 -0.008213 10000.000000 1958.028038 -2.000000 -0.578722 -4.821278 -0.058934 10000.000000 1958.028038 5.107375 -0.010230 0.024873 -6104.820801 1897.886841 -0.531052 0.015984 0.295441 89.529135 1649.563232 0.015158 0.015072 0.000744 0.000676 0.000000 0.000000 0.000000 0.000000 0.000000 0.000000 0.000000 0.000000 0.000000 0.000000 0.000000 0.000000 0.000000 0.000000 0.000000 0.000000 0.000000 0.000000 0.000000 0.000000 0.000000 
0.934267 365.033 1.189150 -0.035820 11.239973 0.000000 4.000000 89.522682 -0.008326 10000.000000 1950.505760 -2.000000 -0.579698 -4.820302 -0.058777 10000.000000 1950.505760 5.127078 -0.010254 0.025014 -6104.819824 1897.972046 -0.531075 0.016110 0.293781 89.522667 1653.514771 0.015070 0.014985 0.000739 0.000673 0.000000 0.000000 0.000000 0.000000 0.000000 0.000000 0.000000 0.000000 0.000000 0.000000 0.000000 0.000000 0.000000 0.000000 0.000000 0.000000 0.000000 0.000000 0.000000 0.000000 0.000000 
0.950933 365.05 1.181597 -0.035957 11.308336 0.000000 4.000000 89.516186 -0.008439 10000.000000 1943.079045 -2.000000 -0.580186 -4.819814 -0.058777 10000.000000 1943.079045 5.146680 -0.010276 0.025147 -6104.819336 1898.057739 -0.531095 0.016227 0.291998 89.516171 1658.418579 0.015022 0.014938 0.000736 0.000671 0.000000 0.000000 0.000000 0.000000 0.000000 0.000000 0.000000 0.000000 0.000000 0.000000 0.000000 0.000000 0.000000 0.000000 0.000000 0.000000 0.000000 0.000000 0.000000 0.000000 0.000000 
0.967633 365.067 1.176737 -0.036081 11.308336 0.000000 4.000000 89.509684 -0.008553 10000.000000 1935.722785 -2.000000 -0.581162 -4.818838 -0.058777 10000.000000 1935.722785 5.166245 -0.010297 0.025275 -6104.818359 1898.143677 -0.531111 0.016333 0.290105 89.509669 1663.288940 0.015008 0.014924 0.000735 0.000671 0.000000 0.000000 0.000000 0.000000 0.000000 0.000000 0.000000 0.000000 0.000000 0.000000 0.000000 0.000000 0.000000 0.000000 0.000000 0.000000 0.000000 0.000000 0.000000 0.000000 0.000000 
0.9843 365.083 1.174463 -0.036231 11.308336 0.000000 4.000000 89.503161 -0.008667 10000.000000 1928.424853 -2.000000 -0.582138 -4.817862 -0.058777 10000.000000 1928.424853 5.185802 -0.010317 0.025400 -6104.817383 1898.229858 -0.531124 0.016430 0.288128 89.503146 1667.790527 0.015004 0.014920 0.000734 0.000671 0.000000 0.000000 0.000000 0.000000 0.000000 0.000000 0.000000 0.000000 0.000000 0.000000 0.000000 0.000000 0.000000 0.000000 0.000000 0.000000 0.000000 0.000000 0.000000 0.000000 0.000000 
1.001 365.1 1.173609 -0.036394 11.410882 0.000000 4.000000 89.496624 -0.008781 10000.000000 1921.181919 -2.000000 -0.583114 -4.816886 -0.058620 10000.000000 1921.181919 5.205358 -0.010336 0.025518 -6104.816406 1898.316528 -0.531134 0.016516 0.286095 89.496610 1673.163086 0.015009 0.014924 0.000734 0.000672 0.000000 0.000000 0.000000 0.000000 0.000000 0.000000 0.000000 0.000000 0.000000 0.000000 0.000000 0.000000 0.000000 0.000000 0.000000 0.000000 0.000000 0.000000 0.000000 0.000000 0.000000 
1.01767 365.117 1.174031 -0.036548 11.410882 0.000000 4.000000 89.490067 -0.008895 10000.000000 1913.983405 -2.000000 -0.584090 -4.815910 -0.058620 10000.000000 1913.983405 5.224942 -0.010354 0.025629 -6104.815430 1898.403442 -0.531140 0.016594 0.284038 89.490053 1678.205688 0.015031 0.014946 0.000734 0.000674 0.000000 0.000000 0.000000 0.000000 0.000000 0.000000 0.000000 0.000000 0.000000 0.000000 0.000000 0.000000 0.000000 0.000000 0.000000 0.000000 0.000000 0.000000 0.000000 0.000000 0.000000 
1.03437 365.133 1.175540 -0.036716 11.410882 0.000000 4.000000 89.483497 -0.009010 10000.000000 1906.825979 -2.000000 -0.585066 -4.814934 -0.058620 10000.000000 1906.825979 5.244560 -0.010371 0.025731 -6104.814453 1898.490601 -0.531143 0.016663 0.281990 89.483482 1682.632324 0.015048 0.014962 0.000734 0.000676 0.000000 0.000000 0.000000 0.000000 0.000000 0.000000 0.000000 0.000000 0.000000 0.000000 0.000000 0.000000 0.000000 0.000000 0.000000 0.000000 0.000000 0.000000 0.000000 0.000000 0.000000 
1.05103 365.15 1.176969 -0.036909 11.410882 0.000000 4.000000 89.476912 -0.009125 10000.000000 1899.716377 -2.000000 -0.586042 -4.813958 -0.058620 10000.000000 1899.716377 5.264194 -0.010387 0.025820 -6104.813477 1898.578247 -0.531143 0.016727 0.279979 89.476898 1686.609619 0.015046 0.014961 0.000734 0.000676 0.000000 0.000000 0.000000 0.000000 0.000000 0.000000 0.000000 0.000000 0.000000 0.000000 0.000000 0.000000 0.000000 0.000000 0.000000 0.000000 0.000000 0.000000 0.000000 0.000000 0.000000 
1.06773 365.167 1.177300 -0.037127 11.410882 0.000000 4.000000 89.470301 -0.009240 10000.000000 1892.664889 -2.000000 -0.587019 -4.812981 -0.058620 10000.000000 1892.664889 5.283814 -0.010404 0.025891 -6104.812500 1898.666138 -0.531140 0.016788 0.278020 89.470286 1690.336182 0.015025 0.014939 0.000732 0.000676 0.000000 0.000000 0.000000 0.000000 0.000000 0.000000 0.000000 0.000000 0.000000 0.000000 0.000000 0.000000 0.000000 0.000000 0.000000 0.000000 0.000000 0.000000 0.000000 0.000000 0.000000 
1.0844 365.183 1.176157 -0.037366 11.410882 0.000000 4.000000 89.463676 -0.009356 10000.000000 1885.679460 -2.000000 -0.587995 -4.812005 -0.058620 10000.000000 1885.679460 5.303394 -0.010421 0.025941 -6104.811523 1898.754272 -0.531135 0.016848 0.276118 89.463661 1693.973511 0.014988 0.014903 0.000729 0.000676 0.000000 0.000000 0.000000 0.000000 0.000000 0.000000 0.000000 0.000000 0.000000 0.000000 0.000000 0.000000 0.000000 0.000000 0.000000 0.000000 0.000000 0.000000 0.000000 0.000000 0.000000 
1.1011 365.2 1.173701 -0.037623 11.410882 0.000000 4.000000 89.457030 -0.009472 10000.000000 1878.765938 -2.000000 -0.588971 -4.811029 -0.058620 10000.000000 1878.765938 5.322917 -0.010439 0.025967 -6104.810547 1898.842896 -0.531128 0.016912 0.274270 89.457015 1697.620605 0.014944 0.014858 0.000727 0.000675 0.000000 0.000000 0.000000 0.000000 0.000000 0.000000 0.000000 0.000000 0.000000 0.000000 0.000000 0.000000 0.000000 0.000000 0.000000 0.000000 0.000000 0.000000 0.000000 0.000000 0.000000 
1.11777 365.217 1.170395 -0.037891 11.445062 0.000000 4.000000 89.450364 -0.009588 10000.000000 1871.925148 -2.000000 -0.589947 -4.810053 -0.058463 10000.000000 1871.925148 5.342377 -0.010457 0.025970 -6104.809570 1898.931763 -0.531119 0.016981 0.272472 89.450349 1701.752808 0.014901 0.014816 0.000724 0.000673 0.000000 0.000000 0.000000 0.000000 0.000000 0.000000 0.000000 0.000000 0.000000 0.000000 0.000000 0.000000 0.000000 0.000000 0.000000 0.000000 0.000000 0.000000 0.000000 0.000000 0.000000 
1.13447 365.233 1.166855 -0.038152 11.445062 0.000000 4.000000 89.443260 -0.009712 10000.000000 1864.730665 -2.000000 -0.590923 -4.809077 -0.058463 10000.000000 1864.730665 5.362997 -0.010475 0.025948 -6104.808594 1899.026489 -0.531109 0.017062 0.270611 89.443245 1706.128296 0.014866 0.014781 0.000721 0.000673 0.000000 0.000000 0.000000 0.000000 0.000000 0.000000 0.000000 0.000000 0.000000 0.000000 0.000000 0.000000 0.000000 0.000000 0.000000 0.000000 0.000000 0.000000 0.000000 0.000000 0.000000 
1.15113 365.25 1.164147 -0.038361 11.445062 0.000000 4.000000 89.436976 -0.009822 10000.000000 1858.442001 -2.000000 -0.591899 -4.808101 -0.058306 10000.000000 1858.442001 5.381152 -0.010491 0.025910 -6104.807617 1899.110474 -0.531099 0.017139 0.269014 89.436962 1709.874268 0.014839 0.014754 0.000719 0.000673 0.000000 0.000000 0.000000 0.000000 0.000000 0.000000 0.000000 0.000000 0.000000 0.000000 0.000000 0.000000 0.000000 0.000000 0.000000 0.000000 0.000000 0.000000 0.000000 0.000000 0.000000 
1.16783 365.267 1.161533 -0.038553 11.410882 0.000000 4.000000 89.430249 -0.009939 10000.000000 1851.794751 -2.000000 -0.592875 -4.807125 -0.058306 10000.000000 1851.794751 5.400476 -0.010506 0.025853 -6104.806641 1899.200317 -0.531088 0.017228 0.267359 89.430234 1713.321289 0.014805 0.014719 0.000717 0.000672 0.000000 0.000000 0.000000 0.000000 0.000000 0.000000 0.000000 0.000000 0.000000 0.000000 0.000000 0.000000 0.000000 0.000000 0.000000 0.000000 0.000000 0.000000 0.000000 0.000000 0.000000 
1.1845 365.283 1.158577 -0.038726 11.410882 0.000000 4.000000 89.423507 -0.010057 10000.000000 1845.214527 -2.000000 -0.594340 -4.805660 -0.058148 10000.000000 1845.214527 5.419743 -0.010520 0.025777 -6104.805176 1899.290527 -0.531077 0.017321 0.265754 89.423492 1716.739502 0.014758 0.014672 0.000715 0.000671 0.000000 0.000000 0.000000 0.000000 0.000000 0.000000 0.000000 0.000000 0.000000 0.000000 0.000000 0.000000 0.000000 0.000000 0.000000 0.000000 0.000000 0.000000 0.000000 0.000000 0.000000 
1.2012 365.3 1.154950 -0.038875 11.410882 0.000000 4.000000 89.416752 -0.010175 10000.000000 1838.704601 -2.000000 -0.595316 -4.804684 -0.058148 10000.000000 1838.704601 5.438940 -0.010533 0.025686 -6104.804199 1899.380981 -0.531067 0.017417 0.264195 89.416737 1720.254028 0.014708 0.014622 0.000712 0.000670 0.000000 0.000000 0.000000 0.000000 0.000000 0.000000 0.000000 0.000000 0.000000 0.000000 0.000000 0.000000 0.000000 0.000000 0.000000 0.000000 0.000000 0.000000 0.000000 0.000000 0.000000 
1.21787 365.317 1.150634 -0.039003 11.410882 0.000000 4.000000 89.409546 -0.010300 10000.000000 1831.864338 -2.000000 -0.596292 -4.803708 -0.057677 10000.000000 1831.864338 5.459258 -0.010543 0.025573 -6104.803223 1899.477417 -0.531057 0.017518 0.262585 89.409531 1724.092651 0.014656 0.014570 0.000709 0.000668 0.000000 0.000000 0.000000 0.000000 0.000000 0.000000 0.000000 0.000000 0.000000 0.000000 0.000000 0.000000 0.000000 0.000000 0.000000 0.000000 0.000000 0.000000 0.000000 0.000000 0.000000 
1.23457 365.333 1.146518 -0.039041 11.410882 0.000000 4.000000 89.402757 -0.010419 10000.000000 1825.495775 -2.000000 -0.597756 -4.802244 -0.056735 10000.000000 1825.495775 5.478312 -0.010549 0.025455 -6104.801758 1899.568604 -0.531048 0.017609 0.261110 89.402742 1727.771973 0.014610 0.014525 0.000707 0.000667 0.000000 0.000000 0.000000 0.000000 0.000000 0.000000 0.000000 0.000000 0.000000 0.000000 0.000000 0.000000 0.000000 0.000000 0.000000 0.000000 0.000000 0.000000 0.000000 0.000000 0.000000 
1.25123 365.35 1.142837 -0.038966 11.410882 0.000000 4.000000 89.396385 -0.010530 10000.000000 1819.584091 -2.000000 -0.598732 -4.801268 -0.056735 10000.000000 1819.584091 5.496119 -0.010548 0.025337 -6104.800781 1899.654297 -0.531041 0.017684 0.259761 89.396370 1731.246704 0.014571 0.014486 0.000705 0.000666 0.000000 0.000000 0.000000 0.000000 0.000000 0.000000 0.000000 0.000000 0.000000 0.000000 0.000000 0.000000 0.000000 0.000000 0.000000 0.000000 0.000000 0.000000 0.000000 0.000000 0.000000 
1.26793 365.367 1.139190 -0.038738 11.410882 0.000000 4.000000 89.389575 -0.010649 10000.000000 1813.338268 -2.000000 -0.599709 -4.800291 -0.056735 10000.000000 1813.338268 5.515059 -0.010539 0.025205 -6104.799805 1899.746094 -0.531035 0.017744 0.258360 89.389560 1734.950928 0.014533 0.014448 0.000704 0.000665 0.000000 0.000000 0.000000 0.000000 0.000000 0.000000 0.000000 0.000000 0.000000 0.000000 0.000000 0.000000 0.000000 0.000000 0.000000 0.000000 0.000000 0.000000 0.000000 0.000000 0.000000 
1.2846 365.383 1.135610 -0.038338 11.410882 0.000000 4.000000 89.382342 -0.010775 10000.000000 1806.767746 -2.000000 -0.601173 -4.798827 -0.055165 10000.000000 1806.767746 5.535124 -0.010516 0.025062 -6104.798340 1899.843872 -0.531030 0.017778 0.256918 89.382327 1738.862793 0.014494 0.014410 0.000702 0.000665 0.000000 0.000000 0.000000 0.000000 0.000000 0.000000 0.000000 0.000000 0.000000 0.000000 0.000000 0.000000 0.000000 0.000000 0.000000 0.000000 0.000000 0.000000 0.000000 0.000000 0.000000 
1.3013 365.4 1.132638 -0.037765 11.410882 0.000000 4.000000 89.375969 -0.010887 10000.000000 1801.024955 -2.000000 -0.602149 -4.797851 -0.052966 10000.000000 1801.024955 5.552781 -0.010484 0.024935 -6104.797363 1899.930542 -0.531027 0.017768 0.255687 89.375954 1742.285156 0.014460 0.014378 0.000701 0.000664 0.000000 0.000000 0.000000 0.000000 0.000000 0.000000 0.000000 0.000000 0.000000 0.000000 0.000000 0.000000 0.000000 0.000000 0.000000 0.000000 0.000000 0.000000 0.000000 0.000000 0.000000 
1.31797 365.417 1.129272 -0.036843 11.342516 0.000000 4.000000 89.368763 -0.011017 10000.000000 10000.000000 2.000000 -0.604102 4.795898 -0.052966 10000.000000 10000.000000 5.572733 -0.010425 0.024791 -6104.795898 1900.029053 -0.531025 0.017697 0.254343 89.368748 1745.148560 0.014410 0.014330 0.000700 0.000662 0.000000 0.000000 0.000000 0.000000 0.000000 0.000000 0.000000 0.000000 0.000000 0.000000 0.000000 0.000000 0.000000 0.000000 0.000000 0.000000 0.000000 0.000000 0.000000 0.000000 0.000000 
1.33467 365.433 1.125312 -0.035712 11.342516 0.000000 4.000000 89.362015 -0.011135 10000.000000 1788.582066 2.000000 -0.605078 4.794922 -0.049826 10000.000000 1788.582066 5.591429 -0.010349 0.024657 -6104.794922 1900.122070 -0.531025 0.017555 0.253123 89.362000 1748.019531 0.014347 0.014269 0.000698 0.000660 0.000000 0.000000 0.000000 0.000000 0.000000 0.000000 0.000000 0.000000 0.000000 0.000000 0.000000 0.000000 0.000000 0.000000 0.000000 0.000000 0.000000 0.000000 0.000000 0.000000 0.000000 
1.35133 365.45 1.120674 -0.034253 11.342516 0.000000 4.000000 89.355731 -0.011245 10000.000000 1783.023850 2.000000 -0.606055 4.793945 -0.049826 10000.000000 1783.023850 5.608866 -0.010248 0.024532 -6104.793945 1900.209595 -0.531026 0.017340 0.252010 89.355716 1750.931763 0.014258 0.014184 0.000696 0.000657 0.000000 0.000000 0.000000 0.000000 0.000000 0.000000 0.000000 0.000000 0.000000 0.000000 0.000000 0.000000 0.000000 0.000000 0.000000 0.000000 0.000000 0.000000 0.000000 0.000000 0.000000 
1.36803 365.467 1.116127 -0.032370 11.342516 0.000000 4.000000 89.348676 -0.011368 10000.000000 1776.766526 2.000000 -0.607520 4.792480 -0.045429 10000.000000 1776.766526 5.628627 -0.010107 0.024401 -6104.792480 1900.309082 -0.531030 0.016979 0.250777 89.348661 1751.216187 0.014501 0.014430 0.000702 0.000663 0.000000 0.000000 0.000000 0.000000 0.000000 0.000000 0.000000 0.000000 0.000000 0.000000 0.000000 0.000000 0.000000 0.000000 0.000000 0.000000 0.000000 0.000000 0.000000 0.000000 0.000000 
1.3847 365.483 1.139206 -0.030103 11.342516 0.000000 4.000000 89.342126 -0.011482 10000.000000 1770.621881 2.000000 -0.608984 4.791016 -0.045429 10000.000000 1770.621881 5.648167 -0.009932 0.024365 -6104.791016 1900.402954 -0.531034 0.016507 0.249822 89.342111 1743.187012 0.015341 0.015271 0.000740 0.000702 0.000000 0.000000 0.000000 0.000000 0.000000 0.000000 0.000000 0.000000 0.000000 0.000000 0.000000 0.000000 0.000000 0.000000 0.000000 0.000000 0.000000 0.000000 0.000000 0.000000 0.000000 
1.4014 365.5 1.189788 -0.027617 11.342516 0.000000 4.000000 89.335691 -0.011594 10000.000000 1764.191543 2.000000 -0.609961 4.790039 -0.040875 10000.000000 1764.191543 5.668760 -0.009724 0.024422 -6104.790039 1900.497314 -0.531038 0.015891 0.249398 89.335677 1728.236816 0.015875 0.015808 0.000768 0.000733 0.000000 0.000000 0.000000 0.000000 0.000000 0.000000 0.000000 0.000000 0.000000 0.000000 0.000000 0.000000 0.000000 0.000000 0.000000 0.000000 0.000000 0.000000 0.000000 0.000000 0.000000 
1.41807 365.517 1.235012 -0.024609 11.274157 0.000000 4.000000 89.329387 -0.011704 10000.000000 1757.646276 2.000000 -0.611426 4.788574 -0.040875 10000.000000 1757.646276 5.689875 -0.009469 0.024550 -6104.788574 1900.591919 -0.531042 0.015111 0.249681 89.329372 1709.567871 0.016074 0.016014 0.000776 0.000745 0.000000 0.000000 0.000000 0.000000 0.000000 0.000000 0.000000 0.000000 0.000000 0.000000 0.000000 0.000000 0.000000 0.000000 0.000000 0.000000 0.000000 0.000000 0.000000 0.000000 0.000000 
1.43477 365.533 1.259670 -0.021603 11.274157 0.000000 4.000000 89.323254 -0.011811 10000.000000 1751.122198 2.000000 -0.612402 4.787598 -0.036792 10000.000000 1751.122198 5.711077 -0.009180 0.024757 -6104.787598 1900.686890 -0.531047 0.014151 0.250676 89.323239 1688.681641 0.016018 0.015972 0.000772 0.000744 0.000000 0.000000 0.000000 0.000000 0.000000 0.000000 0.000000 0.000000 0.000000 0.000000 0.000000 0.000000 0.000000 0.000000 0.000000 0.000000 0.000000 0.000000 0.000000 0.000000 0.000000 
1.45143 365.55 1.263113 -0.018472 11.274157 0.000000 4.000000 89.317311 -0.011915 10000.000000 1744.711835 2.000000 -0.613867 4.786133 -0.036792 10000.000000 1744.711835 5.732063 -0.008855 0.025033 -6104.786133 1900.782349 -0.531050 0.013001 0.252276 89.317297 1668.456055 0.015810 0.015776 0.000760 0.000736 0.000000 0.000000 0.000000 0.000000 0.000000 0.000000 0.000000 0.000000 0.000000 0.000000 0.000000 0.000000 0.000000 0.000000 0.000000 0.000000 0.000000 0.000000 0.000000 0.000000 0.000000 
1.46813 365.567 1.251009 -0.015684 11.137434 0.000000 4.000000 89.311581 -0.012015 10000.000000 1738.461930 2.000000 -0.615332 4.784668 -0.033651 10000.000000 1738.461930 5.752673 -0.008509 0.025344 -6104.784668 1900.878052 -0.531053 0.011688 0.254311 89.311566 1649.864380 0.015533 0.015512 0.000743 0.000725 0.000000 0.000000 0.000000 0.000000 0.000000 0.000000 0.000000 0.000000 0.000000 0.000000 0.000000 0.000000 0.000000 0.000000 0.000000 0.000000 0.000000 0.000000 0.000000 0.000000 0.000000 
1.4848 365.583 1.229928 -0.013193 11.137434 0.000000 4.000000 89.306096 -0.012111 10000.000000 1732.389578 2.000000 -0.616309 4.783691 -0.033651 10000.000000 1732.389578 5.772839 -0.008149 0.025660 -6104.783691 1900.973999 -0.531057 0.010248 0.256584 89.306081 1631.329712 0.015219 0.015208 0.000724 0.000713 0.000000 0.000000 0.000000 0.000000 0.000000 0.000000 0.000000 0.000000 0.000000 0.000000 0.000000 0.000000 0.000000 0.000000 0.000000 0.000000 0.000000 0.000000 0.000000 0.000000 0.000000 
1.5015 365.6 1.203837 -0.011257 11.137434 0.000000 4.000000 89.300858 -0.012202 10000.000000 1726.504041 2.000000 -0.617773 4.782227 -0.030825 10000.000000 1726.504041 5.792520 -0.007786 0.025951 -6104.782227 1901.070435 -0.531060 0.008734 0.258894 89.300843 1615.353638 0.014894 0.014893 0.000704 0.000699 0.000000 0.000000 0.000000 0.000000 0.000000 0.000000 0.000000 0.000000 0.000000 0.000000 0.000000 0.000000 0.000000 0.000000 0.000000 0.000000 0.000000 0.000000 0.000000 0.000000 0.000000 
1.51817 365.617 1.176079 -0.009685 11.137434 0.000000 4.000000 89.295885 -0.012289 10000.000000 1720.796015 2.000000 -0.619238 4.780762 -0.028155 10000.000000 1720.796015 5.811735 -0.007428 0.026195 -6104.780762 1901.167114 -0.531064 0.007202 0.261051 89.295870 1601.824097 0.014599 0.014605 0.000685 0.000685 0.000000 0.000000 0.000000 0.000000 0.000000 0.000000 0.000000 0.000000 0.000000 0.000000 0.000000 0.000000 0.000000 0.000000 0.000000 0.000000 0.000000 0.000000 0.000000 0.000000 0.000000 
1.53487 365.633 1.149690 -0.008436 11.069072 0.000000 4.000000 89.291172 -0.012371 10000.000000 1715.244985 2.000000 -0.620215 4.779785 -0.028155 10000.000000 1715.244985 5.830545 -0.007076 0.026375 -6104.779785 1901.264160 -0.531070 0.005711 0.262893 89.291157 1590.441040 0.014348 0.014361 0.000669 0.000671 0.000000 0.000000 0.000000 0.000000 0.000000 0.000000 0.000000 0.000000 0.000000 0.000000 0.000000 0.000000 0.000000 0.000000 0.000000 0.000000 0.000000 0.000000 0.000000 0.000000 0.000000 
1.55153 365.65 1.126389 -0.007445 11.069072 0.000000 4.000000 89.286733 -0.012449 10000.000000 1709.829322 2.000000 -0.621680 4.778320 -0.025800 10000.000000 1709.829322 5.849014 -0.006738 0.026483 -6104.778320 1901.361450 -0.531077 0.004309 0.264298 89.286718 1579.870117 0.014134 0.014151 0.000655 0.000658 0.000000 0.000000 0.000000 0.000000 0.000000 0.000000 0.000000 0.000000 0.000000 0.000000 0.000000 0.000000 0.000000 0.000000 0.000000 0.000000 0.000000 0.000000 0.000000 0.000000 0.000000 
1.56823 365.667 1.106330 -0.006616 11.069072 0.000000 4.000000 89.282553 -0.012522 10000.000000 1704.531840 2.000000 -0.623145 4.776855 -0.025800 10000.000000 1704.531840 5.867194 -0.006412 0.026515 -6104.776855 1901.459106 -0.531087 0.003043 0.265175 89.282538 1570.818359 0.013955 0.013974 0.000644 0.000645 0.000000 0.000000 0.000000 0.000000 0.000000 0.000000 0.000000 0.000000 0.000000 0.000000 0.000000 0.000000 0.000000 0.000000 0.000000 0.000000 0.000000 0.000000 0.000000 0.000000 0.000000 
1.5849 365.683 1.089489 -0.005977 10.898167 0.000000 4.000000 89.278618 -0.012590 10000.000000 1699.335379 2.000000 -0.624121 4.775879 -0.023601 10000.000000 1699.335379 5.885138 -0.006103 0.026485 -6104.775879 1901.557007 -0.531098 0.001962 0.265472 89.278604 1562.756836 0.013808 0.013829 0.000634 0.000632 0.000000 0.000000 0.000000 0.000000 0.000000 0.000000 0.000000 0.000000 0.000000 0.000000 0.000000 0.000000 0.000000 0.000000 0.000000 0.000000 0.000000 0.000000 0.000000 0.000000 0.000000 
1.6016 365.7 1.075205 -0.005254 10.898167 0.000000 4.000000 89.274930 -0.012655 10000.000000 1694.231137 2.000000 -0.625586 4.774414 -0.023601 10000.000000 1694.231137 5.902869 -0.005802 0.026412 -6104.774414 1901.655273 -0.531113 0.001112 0.265176 89.274915 1553.364868 0.013655 0.013676 0.000624 0.000620 0.000000 0.000000 0.000000 0.000000 0.000000 0.000000 0.000000 0.000000 0.000000 0.000000 0.000000 0.000000 0.000000 0.000000 0.000000 0.000000 0.000000 0.000000 0.000000 0.000000 0.000000 
1.61827 365.717 1.061679 -0.004634 10.898167 0.000000 4.000000 89.271467 -0.012715 10000.000000 1689.221006 2.000000 -0.627051 4.772949 -0.020461 10000.000000 1689.221006 5.920379 -0.005515 0.026312 -6104.772949 1901.753784 -0.531128 0.000491 0.264301 89.271452 1545.124512 0.013504 0.013524 0.000616 0.000608 0.000000 0.000000 0.000000 0.000000 0.000000 0.000000 0.000000 0.000000 0.000000 0.000000 0.000000 0.000000 0.000000 0.000000 0.000000 0.000000 0.000000 0.000000 0.000000 0.000000 0.000000 
1.63497 365.733 1.048570 -0.003714 10.795624 0.000000 4.000000 89.268209 -0.012772 10000.000000 1684.300207 2.000000 -0.628516 4.771484 -0.020461 10000.000000 1684.300207 5.937677 -0.005227 0.026197 -6104.771484 1901.852539 -0.531146 0.000066 0.262875 89.268194 1537.834106 0.013367 0.013384 0.000609 0.000597 0.000000 0.000000 0.000000 0.000000 0.000000 0.000000 0.000000 0.000000 0.000000 0.000000 0.000000 0.000000 0.000000 0.000000 0.000000 0.000000 0.000000 0.000000 0.000000 0.000000 0.000000 
1.65163 365.75 1.036142 -0.002652 10.795624 0.000000 4.000000 89.265149 -0.012826 10000.000000 1679.463540 2.000000 -0.629492 4.770508 -0.016849 10000.000000 1679.463540 5.954778 -0.004938 0.026076 -6104.770508 1901.951660 -0.531163 -0.000217 0.260937 89.265134 1530.149658 0.013229 0.013243 0.000602 0.000587 0.000000 0.000000 0.000000 0.000000 0.000000 0.000000 0.000000 0.000000 0.000000 0.000000 0.000000 0.000000 0.000000 0.000000 0.000000 0.000000 0.000000 0.000000 0.000000 0.000000 0.000000 
1.66833 365.767 1.024009 -0.001182 10.795624 0.000000 4.000000 89.262281 -0.012876 10000.000000 1674.710471 2.000000 -0.630957 4.769043 -0.016849 10000.000000 1674.710471 5.971680 -0.004639 0.025959 -6104.769043 1902.051025 -0.531180 -0.000411 0.258527 89.262266 1523.481201 0.013097 0.013110 0.000596 0.000577 0.000000 0.000000 0.000000 0.000000 0.000000 0.000000 0.000000 0.000000 0.000000 0.000000 0.000000 0.000000 0.000000 0.000000 0.000000 0.000000 0.000000 0.000000 0.000000 0.000000 0.000000 
1.685 365.783 1.012435 0.000479 10.795624 0.000000 4.000000 89.259590 -0.012923 10000.000000 1670.034897 2.000000 -0.632422 4.767578 -0.011981 10000.000000 1670.034897 5.988399 -0.004324 0.025844 -6104.767578 1902.150635 -0.531196 -0.000556 0.255686 89.259575 1517.702271 0.012977 0.012992 0.000590 0.000569 0.000000 0.000000 0.000000 0.000000 0.000000 0.000000 0.000000 0.000000 0.000000 0.000000 0.000000 0.000000 0.000000 0.000000 0.000000 0.000000 0.000000 0.000000 0.000000 0.000000 0.000000 
1.7017 365.8 1.001857 0.002733 10.795624 0.000000 4.000000 89.257083 -0.012966 10000.000000 1665.429663 2.000000 -0.633887 4.766113 -0.011981 10000.000000 1665.429663 6.004958 -0.003986 0.025728 -6104.766113 1902.250610 -0.531209 -0.000711 0.252460 89.257068 1512.647461 0.012871 0.012889 0.000586 0.000563 0.000000 0.000000 0.000000 0.000000 0.000000 0.000000 0.000000 0.000000 0.000000 0.000000 0.000000 0.000000 0.000000 0.000000 0.000000 0.000000 0.000000 0.000000 0.000000 0.000000 0.000000 
1.71837 365.817 0.992483 0.005157 10.795624 0.000000 4.000000 89.254767 -0.013007 10000.000000 1660.887772 2.000000 -0.635352 4.764648 -0.006328 10000.000000 1660.887772 6.021379 -0.003620 0.025607 -6104.764648 1902.350830 -0.531220 -0.000922 0.248901 89.254753 1508.157837 0.012778 0.012798 0.000583 0.000558 0.000000 0.000000 0.000000 0.000000 0.000000 0.000000 0.000000 0.000000 0.000000 0.000000 0.000000 0.000000 0.000000 0.000000 0.000000 0.000000 0.000000 0.000000 0.000000 0.000000 0.000000 
1.73507 365.833 0.984283 0.008111 10.795624 0.000000 4.000000 89.252657 -0.013044 10000.000000 1656.403685 2.000000 -0.636328 4.763672 -0.000361 10000.000000 1656.403685 6.037678 -0.003223 0.025478 -6104.763672 1902.451294 -0.531227 -0.001245 0.245062 89.252642 1504.102661 0.012695 0.012719 0.000581 0.000553 0.000000 0.000000 0.000000 0.000000 0.000000 0.000000 0.000000 0.000000 0.000000 0.000000 0.000000 0.000000 0.000000 0.000000 0.000000 0.000000 0.000000 0.000000 0.000000 0.000000 0.000000 
1.75173 365.85 0.977086 0.011345 10.795624 0.000000 4.000000 89.250765 -0.013077 10000.000000 1651.972633 2.000000 -0.637793 4.762207 -0.000361 10000.000000 1651.972633 6.053870 -0.002786 0.025336 -6104.762207 1902.552124 -0.531231 -0.001720 0.240996 89.250750 1500.385986 0.012620 0.012648 0.000580 0.000550 0.000000 0.000000 0.000000 0.000000 0.000000 0.000000 0.000000 0.000000 0.000000 0.000000 0.000000 0.000000 0.000000 0.000000 0.000000 0.000000 0.000000 0.000000 0.000000 0.000000 0.000000 
1.76843 365.867 0.970660 0.014815 10.795624 0.000000 4.000000 89.249119 -0.013105 10000.000000 1647.591631 2.000000 -0.639258 4.760742 0.005764 10000.000000 1647.591631 6.069964 -0.002320 0.025177 -6104.760742 1902.653076 -0.531232 -0.002386 0.236755 89.249104 1496.944336 0.012550 0.012583 0.000579 0.000547 0.000000 0.000000 0.000000 0.000000 0.000000 0.000000 0.000000 0.000000 0.000000 0.000000 0.000000 0.000000 0.000000 0.000000 0.000000 0.000000 0.000000 0.000000 0.000000 0.000000 0.000000 
1.7851 365.883 0.964744 0.018318 10.795624 0.000000 4.000000 89.247746 -0.013129 10000.000000 1643.258911 2.000000 -0.640723 4.759277 0.005764 10000.000000 1643.258911 6.085965 -0.001818 0.024997 -6104.759277 1902.754395 -0.531228 -0.003257 0.232389 89.247731 1493.739502 0.012480 0.012518 0.000578 0.000543 0.000000 0.000000 0.000000 0.000000 0.000000 0.000000 0.000000 0.000000 0.000000 0.000000 0.000000 0.000000 0.000000 0.000000 0.000000 0.000000 0.000000 0.000000 0.000000 0.000000 0.000000 
1.8018 365.9 0.959048 0.021815 10.795624 0.000000 4.000000 89.246667 -0.013148 10000.000000 1638.973641 2.000000 -0.642188 4.757813 0.010789 10000.000000 1638.973641 6.101873 -0.001294 0.024792 -6104.757813 1902.855957 -0.531221 -0.004344 0.227943 89.246652 1490.750610 0.012411 0.012456 0.000577 0.000540 0.000000 0.000000 0.000000 0.000000 0.000000 0.000000 0.000000 0.000000 0.000000 0.000000 0.000000 0.000000 0.000000 0.000000 0.000000 0.000000 0.000000 0.000000 0.000000 0.000000 0.000000 
1.81847 365.917 0.953523 0.025222 10.795624 0.000000 4.000000 89.245909 -0.013161 10000.000000 1634.734491 2.000000 -0.643164 4.756836 0.010789 10000.000000 1634.734491 6.117692 -0.000746 0.024560 -6104.756836 1902.957764 -0.531211 -0.005632 0.223458 89.245894 1487.967285 0.012344 0.012396 0.000575 0.000537 0.000000 0.000000 0.000000 0.000000 0.000000 0.000000 0.000000 0.000000 0.000000 0.000000 0.000000 0.000000 0.000000 0.000000 0.000000 0.000000 0.000000 0.000000 0.000000 0.000000 0.000000 
1.83517 365.933 0.948155 0.028135 10.761444 0.000000 4.000000 89.245506 -0.013168 10000.000000 1630.540413 2.000000 -0.644629 4.755371 0.014715 10000.000000 1630.540413 6.133422 -0.000198 0.024300 -6104.755371 1903.059814 -0.531198 -0.007093 0.218970 89.245491 1485.326172 0.012279 0.012337 0.000573 0.000535 0.000000 0.000000 0.000000 0.000000 0.000000 0.000000 0.000000 0.000000 0.000000 0.000000 0.000000 0.000000 0.000000 0.000000 0.000000 0.000000 0.000000 0.000000 0.000000 0.000000 0.000000 
1.85183 365.95 0.942854 0.030645 10.761444 0.000000 4.000000 89.245458 -0.013169 10000.000000 1626.391008 2.000000 -0.646094 4.753906 0.014715 10000.000000 1626.391008 6.149065 0.000349 0.024010 -6104.753906 1903.162231 -0.531183 -0.008678 0.214513 89.245443 1482.517700 0.012210 0.012274 0.000570 0.000532 0.000000 0.000000 0.000000 0.000000 0.000000 0.000000 0.000000 0.000000 0.000000 0.000000 0.000000 0.000000 0.000000 0.000000 0.000000 0.000000 0.000000 0.000000 0.000000 0.000000 0.000000 
1.86853 365.967 0.937403 0.032444 10.761444 0.000000 4.000000 89.245793 -0.013163 10000.000000 1622.287516 2.000000 -0.647559 4.752441 0.016599 10000.000000 1622.287516 6.164613 0.000874 0.023690 -6104.752441 1903.264771 -0.531165 -0.010325 0.210115 89.245778 1480.005371 0.012140 0.012209 0.000566 0.000530 0.000000 0.000000 0.000000 0.000000 0.000000 0.000000 0.000000 0.000000 0.000000 0.000000 0.000000 0.000000 0.000000 0.000000 0.000000 0.000000 0.000000 0.000000 0.000000 0.000000 0.000000 
1.8852 365.983 0.931850 0.033520 10.761444 0.000000 4.000000 89.246496 -0.013151 10000.000000 1618.228903 2.000000 -0.648535 4.751465 0.016599 10000.000000 1618.228903 6.180068 0.001366 0.023341 -6104.751465 1903.367676 -0.531147 -0.011960 0.205801 89.246481 1477.790405 0.012072 0.012145 0.000560 0.000528 0.000000 0.000000 0.000000 0.000000 0.000000 0.000000 0.000000 0.000000 0.000000 0.000000 0.000000 0.000000 0.000000 0.000000 0.000000 0.000000 0.000000 0.000000 0.000000 0.000000 0.000000 
1.9019 366 0.926374 0.033689 10.795624 0.000000 4.000000 89.247568 -0.013132 10000.000000 1614.213657 2.000000 -0.650000 4.750000 0.016599 10000.000000 1614.213657 6.195435 0.001809 0.022965 -6104.750000 1903.470825 -0.531127 -0.013500 0.201593 89.247554 1475.906860 0.012007 0.012083 0.000554 0.000528 0.000000 0.000000 0.000000 0.000000 0.000000 0.000000 0.000000 0.000000 0.000000 0.000000 0.000000 0.000000 0.000000 0.000000 0.000000 0.000000 0.000000 0.000000 0.000000 0.000000 0.000000 
1.91857 366.017 0.921149 0.032959 10.795624 0.000000 4.000000 89.248989 -0.013108 10000.000000 1610.240047 2.000000 -0.651465 4.748535 0.016599 10000.000000 1610.240047 6.210718 0.002190 0.022565 -6104.748535 1903.574219 -0.531108 -0.014855 0.197511 89.248974 1474.645874 0.011949 0.012025 0.000547 0.000528 0.000000 0.000000 0.000000 0.000000 0.000000 0.000000 0.000000 0.000000 0.000000 0.000000 0.000000 0.000000 0.000000 0.000000 0.000000 0.000000 0.000000 0.000000 0.000000 0.000000 0.000000 
1.93527 366.033 0.916298 0.031516 10.795624 0.000000 4.000000 89.250710 -0.013078 10000.000000 1606.305514 2.000000 -0.652930 4.747070 0.016128 10000.000000 1606.305514 6.225926 0.002504 0.022144 -6104.747070 1903.677734 -0.531089 -0.015946 0.193577 89.250695 1473.554321 0.011895 0.011971 0.000540 0.000530 0.000000 0.000000 0.000000 0.000000 0.000000 0.000000 0.000000 0.000000 0.000000 0.000000 0.000000 0.000000 0.000000 0.000000 0.000000 0.000000 0.000000 0.000000 0.000000 0.000000 0.000000 
1.95193 366.05 0.911792 0.029570 10.795624 0.000000 4.000000 89.252712 -0.013043 10000.000000 1602.408405 2.000000 -0.653906 4.746094 0.016128 10000.000000 1602.408405 6.241064 0.002751 0.021707 -6104.746094 1903.781616 -0.531071 -0.016707 0.189807 89.252697 1472.603394 0.011845 0.011919 0.000534 0.000532 0.000000 0.000000 0.000000 0.000000 0.000000 0.000000 0.000000 0.000000 0.000000 0.000000 0.000000 0.000000 0.000000 0.000000 0.000000 0.000000 0.000000 0.000000 0.000000 0.000000 0.000000 
1.96863 366.067 0.907583 0.027408 10.795624 0.000000 4.000000 89.254938 -0.013004 10000.000000 1598.547219 2.000000 -0.655371 4.744629 0.015657 10000.000000 1598.547219 6.256135 0.002935 0.021257 -6104.744629 1903.885864 -0.531055 -0.017097 0.186221 89.254923 1471.770142 0.011799 0.011869 0.000528 0.000536 0.000000 0.000000 0.000000 0.000000 0.000000 0.000000 0.000000 0.000000 0.000000 0.000000 0.000000 0.000000 0.000000 0.000000 0.000000 0.000000 0.000000 0.000000 0.000000 0.000000 0.000000 
