VidTime SimTime LonAccel LatAccel Throttle Brake Gear Heading HeadingError HeadwayDistance HeadwayTime Lane LaneOffset RoadOffset Steer TailwayDistance TailwayTime Velocity LatVelocity VertVelocity XPos YPos ZPos Roll Pitch Yaw EngineRPM SlipFR SlipFL SlipRR SlipRL User1 User2 User3 User4 User5 User6 User7 User8 User9 User10 User11 User12 User13 User14 User15 User16 User17 User18 User19 User20 User21 
0.0166666 364.75 3.035849 0.031330 90.000000 0.000000 4.000000 90.056775 0.000991 10000.000000 1055.200868 2.000000 -0.491797 4.908203 0.016520 16.324252 1.722536 9.475656 0.003646 0.152134 -6104.908203 1909.361694 -0.530178 -0.015537 0.921430 90.056760 2971.797607 0.040484 0.040728 0.001585 0.001593 0.000000 0.000000 0.000000 0.000000 0.000000 0.000000 0.000000 0.000000 0.000000 0.000000 0.000000 0.000000 0.000000 0.000000 0.000000 0.000000 0.000000 0.000000 0.000000 0.000000 0.000000 
0.0333667 364.767 3.037750 0.030915 90.000000 0.000000 4.000000 90.060334 0.001053 10000.000000 1049.240379 2.000000 -0.491797 4.908203 0.016520 16.430210 1.723924 9.529485 0.003603 0.153056 -6104.908203 1909.529907 -0.530182 -0.015209 0.921104 90.060319 2986.462158 0.040526 0.040763 0.001587 0.001596 0.000000 0.000000 0.000000 0.000000 0.000000 0.000000 0.000000 0.000000 0.000000 0.000000 0.000000 0.000000 0.000000 0.000000 0.000000 0.000000 0.000000 0.000000 0.000000 0.000000 0.000000 
0.0500333 364.783 3.039890 0.030502 90.000000 0.000000 4.000000 90.063653 0.001111 10000.000000 1043.688407 2.000000 -0.491309 4.908691 0.015578 16.526840 1.724887 9.580177 0.003555 0.153908 -6104.908691 1909.689209 -0.530184 -0.014873 0.920725 90.063638 3000.205322 0.040541 0.040775 0.001588 0.001597 0.000000 0.000000 0.000000 0.000000 0.000000 0.000000 0.000000 0.000000 0.000000 0.000000 0.000000 0.000000 0.000000 0.000000 0.000000 0.000000 0.000000 0.000000 0.000000 0.000000 0.000000 
0.0667333 364.8 3.041186 0.029917 90.000000 0.000000 4.000000 90.066938 0.001168 10000.000000 1038.194162 2.000000 -0.491309 4.908691 0.015578 16.623907 1.725884 9.630877 0.003500 0.154745 -6104.908691 1909.849365 -0.530184 -0.014513 0.920291 90.066923 3013.994141 0.040546 0.040776 0.001588 0.001598 0.000000 0.000000 0.000000 0.000000 0.000000 0.000000 0.000000 0.000000 0.000000 0.000000 0.000000 0.000000 0.000000 0.000000 0.000000 0.000000 0.000000 0.000000 0.000000 0.000000 0.000000 
0.0833999 364.817 3.041778 0.029228 90.000000 0.000000 4.000000 90.070176 0.001225 10000.000000 1032.757054 2.000000 -0.490820 4.909180 0.014479 16.721291 1.726903 9.681581 0.003435 0.155568 -6104.909180 1910.010254 -0.530183 -0.014132 0.919815 90.070161 3027.829590 0.040554 0.040776 0.001588 0.001598 0.000000 0.000000 0.000000 0.000000 0.000000 0.000000 0.000000 0.000000 0.000000 0.000000 0.000000 0.000000 0.000000 0.000000 0.000000 0.000000 0.000000 0.000000 0.000000 0.000000 0.000000 
0.1001 364.833 3.042209 0.028357 90.000000 0.000000 4.000000 90.073359 0.001280 10000.000000 1027.375893 2.000000 -0.490820 4.909180 0.014479 16.819234 1.727968 9.732292 0.003362 0.156377 -6104.909180 1910.172119 -0.530180 -0.013731 0.919306 90.073344 3041.674072 0.040567 0.040780 0.001588 0.001598 0.000000 0.000000 0.000000 0.000000 0.000000 0.000000 0.000000 0.000000 0.000000 0.000000 0.000000 0.000000 0.000000 0.000000 0.000000 0.000000 0.000000 0.000000 0.000000 0.000000 0.000000 
0.116767 364.85 3.042801 0.027228 90.000000 0.000000 4.000000 90.076473 0.001335 10000.000000 1022.049024 2.000000 -0.490332 4.909668 0.012595 16.917493 1.729051 9.783017 0.003271 0.157172 -6104.909668 1910.334717 -0.530176 -0.013309 0.918776 90.076458 3055.498291 0.040584 0.040787 0.001588 0.001599 0.000000 0.000000 0.000000 0.000000 0.000000 0.000000 0.000000 0.000000 0.000000 0.000000 0.000000 0.000000 0.000000 0.000000 0.000000 0.000000 0.000000 0.000000 0.000000 0.000000 0.000000 
0.133467 364.867 3.043527 0.025871 90.000000 0.000000 4.000000 90.079321 0.001384 10000.000000 1017.103758 2.000000 -0.490332 4.909668 0.010239 17.006058 1.729693 9.830585 0.003172 0.157905 -6104.909668 1910.488037 -0.530171 -0.012881 0.918269 90.079307 3068.434814 0.040601 0.040794 0.001588 0.001599 0.000000 0.000000 0.000000 0.000000 0.000000 0.000000 0.000000 0.000000 0.000000 0.000000 0.000000 0.000000 0.000000 0.000000 0.000000 0.000000 0.000000 0.000000 0.000000 0.000000 0.000000 
0.150133 364.883 3.044429 0.023861 90.000000 0.000000 4.000000 90.082457 0.001439 10000.000000 1011.555009 2.000000 -0.489844 4.910156 0.010239 17.115447 1.731322 9.884510 0.003029 0.158722 -6104.910156 1910.662598 -0.530164 -0.012342 0.917693 90.082442 3083.074951 0.040620 0.040799 0.001588 0.001600 0.000000 0.000000 0.000000 0.000000 0.000000 0.000000 0.000000 0.000000 0.000000 0.000000 0.000000 0.000000 0.000000 0.000000 0.000000 0.000000 0.000000 0.000000 0.000000 0.000000 0.000000 
0.166833 364.9 3.045206 0.021901 90.000000 0.000000 4.000000 90.085120 0.001486 10000.000000 1006.707827 2.000000 -0.489355 4.910645 0.006784 17.204644 1.732005 9.932104 0.002887 0.159432 -6104.910645 1910.817383 -0.530158 -0.011802 0.917193 90.085105 3095.980957 0.040636 0.040803 0.001588 0.001600 0.000000 0.000000 0.000000 0.000000 0.000000 0.000000 0.000000 0.000000 0.000000 0.000000 0.000000 0.000000 0.000000 0.000000 0.000000 0.000000 0.000000 0.000000 0.000000 0.000000 0.000000 
0.1835 364.917 3.046035 0.019019 90.000000 0.000000 4.000000 90.088009 0.001536 10000.000000 1001.268946 2.000000 -0.489355 4.910645 0.006784 17.315030 1.733700 9.986057 0.002683 0.160225 -6104.910645 1910.993774 -0.530150 -0.011091 0.916645 90.087995 3110.598145 0.040656 0.040804 0.001588 0.001600 0.000000 0.000000 0.000000 0.000000 0.000000 0.000000 0.000000 0.000000 0.000000 0.000000 0.000000 0.000000 0.000000 0.000000 0.000000 0.000000 0.000000 0.000000 0.000000 0.000000 0.000000 
0.2002 364.933 3.046786 0.015974 90.000000 0.000000 4.000000 90.090578 0.001581 10000.000000 996.202260 2.000000 -0.488867 4.911133 0.003016 17.415478 1.734934 10.036848 0.002461 0.160963 -6104.911133 1911.160645 -0.530143 -0.010295 0.916154 90.090563 3124.345703 0.040677 0.040805 0.001588 0.001600 0.000000 0.000000 0.000000 0.000000 0.000000 0.000000 0.000000 0.000000 0.000000 0.000000 0.000000 0.000000 0.000000 0.000000 0.000000 0.000000 0.000000 0.000000 0.000000 0.000000 0.000000 
0.216867 364.95 3.047530 0.012226 90.000000 0.000000 4.000000 90.092968 0.001623 10000.000000 991.185282 2.000000 -0.488867 4.911133 0.003016 17.516365 1.736196 10.087652 0.002195 0.161697 -6104.911133 1911.328369 -0.530135 -0.009339 0.915699 90.092953 3138.082275 0.040700 0.040803 0.001587 0.001600 0.000000 0.000000 0.000000 0.000000 0.000000 0.000000 0.000000 0.000000 0.000000 0.000000 0.000000 0.000000 0.000000 0.000000 0.000000 0.000000 0.000000 0.000000 0.000000 0.000000 0.000000 
0.233567 364.967 3.048268 0.008487 90.000000 0.000000 4.000000 90.095168 0.001661 10000.000000 986.217469 2.000000 -0.488379 4.911621 -0.001381 17.617688 1.737487 10.138468 0.001901 0.162430 -6104.911621 1911.496948 -0.530127 -0.008195 0.915288 90.095153 3151.807373 0.040725 0.040802 0.001587 0.001601 0.000000 0.000000 0.000000 0.000000 0.000000 0.000000 0.000000 0.000000 0.000000 0.000000 0.000000 0.000000 0.000000 0.000000 0.000000 0.000000 0.000000 0.000000 0.000000 0.000000 0.000000 
0.250233 364.983 3.048998 0.004105 90.000000 0.000000 4.000000 90.097128 0.001695 10000.000000 981.297920 2.000000 -0.487891 4.912109 -0.001381 17.719450 1.738806 10.189296 0.001565 0.163164 -6104.912109 1911.666382 -0.530120 -0.006835 0.914930 90.097113 3165.521240 0.040753 0.040798 0.001587 0.001601 0.000000 0.000000 0.000000 0.000000 0.000000 0.000000 0.000000 0.000000 0.000000 0.000000 0.000000 0.000000 0.000000 0.000000 0.000000 0.000000 0.000000 0.000000 0.000000 0.000000 0.000000 
0.266933 365 3.049657 0.000274 90.000000 0.000000 4.000000 90.098740 0.001723 10000.000000 976.729352 2.000000 -0.487891 4.912109 -0.005307 17.811030 1.739656 10.236957 0.001233 0.163858 -6104.912109 1911.826050 -0.530113 -0.005363 0.914649 90.098725 3178.368652 0.040783 0.040794 0.001586 0.001601 0.000000 0.000000 0.000000 0.000000 0.000000 0.000000 0.000000 0.000000 0.000000 0.000000 0.000000 0.000000 0.000000 0.000000 0.000000 0.000000 0.000000 0.000000 0.000000 0.000000 0.000000 
0.2836 365.017 3.050388 -0.004331 90.000000 0.000000 4.000000 90.100256 0.001750 10000.000000 971.601548 2.000000 -0.487402 4.912598 -0.005307 17.924287 1.741527 10.290985 0.000831 0.164653 -6104.912598 1912.007813 -0.530106 -0.003470 0.914400 90.100241 3192.920410 0.040820 0.040788 0.001586 0.001601 0.000000 0.000000 0.000000 0.000000 0.000000 0.000000 0.000000 0.000000 0.000000 0.000000 0.000000 0.000000 0.000000 0.000000 0.000000 0.000000 0.000000 0.000000 0.000000 0.000000 0.000000 
0.3003 365.033 3.051028 -0.007993 90.000000 0.000000 4.000000 90.101308 0.001768 10000.000000 967.120561 2.000000 -0.486914 4.913086 -0.008291 18.016498 1.742413 10.338667 0.000472 0.165362 -6104.913086 1912.168945 -0.530100 -0.001631 0.914243 90.101293 3205.752930 0.040855 0.040783 0.001585 0.001600 0.000000 0.000000 0.000000 0.000000 0.000000 0.000000 0.000000 0.000000 0.000000 0.000000 0.000000 0.000000 0.000000 0.000000 0.000000 0.000000 0.000000 0.000000 0.000000 0.000000 0.000000 
0.316967 365.05 3.051756 -0.011911 90.000000 0.000000 4.000000 90.102148 0.001783 10000.000000 962.090686 2.000000 -0.486914 4.913086 -0.008291 18.130753 1.744343 10.392718 0.000068 0.166176 -6104.913086 1912.352539 -0.530093 0.000603 0.914138 90.102133 3220.287109 0.040894 0.040778 0.001585 0.001600 0.000000 0.000000 0.000000 0.000000 0.000000 0.000000 0.000000 0.000000 0.000000 0.000000 0.000000 0.000000 0.000000 0.000000 0.000000 0.000000 0.000000 0.000000 0.000000 0.000000 0.000000 
0.333667 365.067 3.052451 -0.014876 90.000000 0.000000 4.000000 90.102592 0.001791 10000.000000 957.403167 2.000000 -0.486426 4.913574 -0.010332 18.234704 1.745796 10.443603 -0.000293 0.166950 -6104.913574 1912.526245 -0.530088 0.002783 0.914109 90.102577 3233.955078 0.040930 0.040775 0.001584 0.001599 0.000000 0.000000 0.000000 0.000000 0.000000 0.000000 0.000000 0.000000 0.000000 0.000000 0.000000 0.000000 0.000000 0.000000 0.000000 0.000000 0.000000 0.000000 0.000000 0.000000 0.000000 
0.350333 365.083 3.053157 -0.017393 90.000000 0.000000 4.000000 90.102694 0.001792 10000.000000 952.759978 2.000000 -0.485937 4.914063 -0.011117 18.338971 1.747264 10.494498 -0.000626 0.167731 -6104.914063 1912.700684 -0.530083 0.004971 0.914147 90.102679 3247.611572 0.040964 0.040773 0.001584 0.001598 0.000000 0.000000 0.000000 0.000000 0.000000 0.000000 0.000000 0.000000 0.000000 0.000000 0.000000 0.000000 0.000000 0.000000 0.000000 0.000000 0.000000 0.000000 0.000000 0.000000 0.000000 
0.367033 365.1 3.053871 -0.019252 90.000000 0.000000 4.000000 90.102462 0.001788 10000.000000 948.160580 2.000000 -0.485937 4.914063 -0.011117 18.443797 1.748768 10.545405 -0.000920 0.168517 -6104.914063 1912.876099 -0.530078 0.007088 0.914249 90.102447 3261.256104 0.040996 0.040774 0.001584 0.001597 0.000000 0.000000 0.000000 0.000000 0.000000 0.000000 0.000000 0.000000 0.000000 0.000000 0.000000 0.000000 0.000000 0.000000 0.000000 0.000000 0.000000 0.000000 0.000000 0.000000 0.000000 
0.3837 365.117 3.054588 -0.020528 90.000000 0.000000 4.000000 90.101902 0.001779 10000.000000 943.604271 2.000000 -0.485449 4.914551 -0.011117 18.548940 1.750286 10.596325 -0.001168 0.169305 -6104.914551 1913.052246 -0.530075 0.009059 0.914409 90.101887 3274.888672 0.041025 0.040777 0.001584 0.001595 0.000000 0.000000 0.000000 0.000000 0.000000 0.000000 0.000000 0.000000 0.000000 0.000000 0.000000 0.000000 0.000000 0.000000 0.000000 0.000000 0.000000 0.000000 0.000000 0.000000 0.000000 
0.4004 365.133 3.055303 -0.021228 90.000000 0.000000 4.000000 90.101041 0.001764 10000.000000 939.090534 2.000000 -0.485449 4.914551 -0.011117 18.654642 1.751840 10.647256 -0.001366 0.170094 -6104.914551 1913.229370 -0.530072 0.010812 0.914623 90.101027 3288.509277 0.041050 0.040784 0.001584 0.001594 0.000000 0.000000 0.000000 0.000000 0.000000 0.000000 0.000000 0.000000 0.000000 0.000000 0.000000 0.000000 0.000000 0.000000 0.000000 0.000000 0.000000 0.000000 0.000000 0.000000 0.000000 
0.417067 365.15 3.056014 -0.021543 90.000000 0.000000 4.000000 90.099915 0.001744 10000.000000 934.618774 2.000000 -0.484961 4.915039 -0.011117 18.760660 1.753406 10.698198 -0.001514 0.170882 -6104.915039 1913.407227 -0.530071 0.012285 0.914885 90.099900 3302.117920 0.041073 0.040793 0.001585 0.001593 0.000000 0.000000 0.000000 0.000000 0.000000 0.000000 0.000000 0.000000 0.000000 0.000000 0.000000 0.000000 0.000000 0.000000 0.000000 0.000000 0.000000 0.000000 0.000000 0.000000 0.000000 
0.433767 365.167 3.056719 -0.021691 90.000000 0.000000 4.000000 90.098535 0.001720 10000.000000 930.188327 2.000000 -0.484473 4.915527 -0.011117 18.867115 1.754997 10.749153 -0.001618 0.171669 -6104.915527 1913.585938 -0.530071 0.013439 0.915188 90.098520 3315.714600 0.041092 0.040806 0.001586 0.001593 0.000000 0.000000 0.000000 0.000000 0.000000 0.000000 0.000000 0.000000 0.000000 0.000000 0.000000 0.000000 0.000000 0.000000 0.000000 0.000000 0.000000 0.000000 0.000000 0.000000 0.000000 
0.450433 365.183 3.057418 -0.021836 90.000000 0.000000 4.000000 90.096957 0.001692 10000.000000 925.798869 2.000000 -0.484473 4.915527 -0.010960 18.974131 1.756623 10.800118 -0.001686 0.172454 -6104.915527 1913.765625 -0.530073 0.014254 0.915526 90.096942 3329.299805 0.041109 0.040821 0.001587 0.001593 0.000000 0.000000 0.000000 0.000000 0.000000 0.000000 0.000000 0.000000 0.000000 0.000000 0.000000 0.000000 0.000000 0.000000 0.000000 0.000000 0.000000 0.000000 0.000000 0.000000 0.000000 
0.467133 365.2 3.058097 -0.022033 90.000000 0.000000 4.000000 90.095195 0.001661 10000.000000 921.449590 2.000000 -0.483984 4.916016 -0.010960 19.081462 1.758261 10.851095 -0.001724 0.173242 -6104.916016 1913.946045 -0.530076 0.014735 0.915892 90.095180 3342.873779 0.041124 0.040841 0.001589 0.001592 0.000000 0.000000 0.000000 0.000000 0.000000 0.000000 0.000000 0.000000 0.000000 0.000000 0.000000 0.000000 0.000000 0.000000 0.000000 0.000000 0.000000 0.000000 0.000000 0.000000 0.000000 
0.4838 365.217 3.058745 -0.022378 90.000000 0.000000 4.000000 90.093289 0.001628 10000.000000 917.140182 2.000000 -0.483984 4.916016 -0.011274 19.189232 1.759922 10.902081 -0.001744 0.174041 -6104.916016 1914.127319 -0.530080 0.014909 0.916280 90.093274 3356.438965 0.041138 0.040867 0.001590 0.001593 0.000000 0.000000 0.000000 0.000000 0.000000 0.000000 0.000000 0.000000 0.000000 0.000000 0.000000 0.000000 0.000000 0.000000 0.000000 0.000000 0.000000 0.000000 0.000000 0.000000 0.000000 
0.5005 365.233 3.059381 -0.023011 90.000000 0.000000 4.000000 90.091274 0.001593 10000.000000 912.869862 2.000000 -0.483496 4.916504 -0.011274 19.297439 1.761605 10.953079 -0.001756 0.174850 -6104.916504 1914.309448 -0.530086 0.014823 0.916685 90.091259 3369.997803 0.041151 0.040894 0.001593 0.001593 0.000000 0.000000 0.000000 0.000000 0.000000 0.000000 0.000000 0.000000 0.000000 0.000000 0.000000 0.000000 0.000000 0.000000 0.000000 0.000000 0.000000 0.000000 0.000000 0.000000 0.000000 
0.517167 365.25 3.060014 -0.023923 90.000000 0.000000 4.000000 90.089164 0.001556 10000.000000 908.638415 2.000000 -0.483496 4.916504 -0.012059 19.406083 1.763311 11.004086 -0.001769 0.175673 -6104.916504 1914.492432 -0.530094 0.014537 0.917104 90.089149 3383.550049 0.041164 0.040923 0.001595 0.001594 0.000000 0.000000 0.000000 0.000000 0.000000 0.000000 0.000000 0.000000 0.000000 0.000000 0.000000 0.000000 0.000000 0.000000 0.000000 0.000000 0.000000 0.000000 0.000000 0.000000 0.000000 
0.533867 365.267 3.060621 -0.025127 90.000000 0.000000 4.000000 90.087122 0.001521 10000.000000 904.705950 2.000000 -0.483008 4.916992 -0.012059 19.503691 1.764511 11.051917 -0.001790 0.176456 -6104.916992 1914.664795 -0.530102 0.014156 0.917504 90.087107 3396.247314 0.041178 0.040948 0.001596 0.001594 0.000000 0.000000 0.000000 0.000000 0.000000 0.000000 0.000000 0.000000 0.000000 0.000000 0.000000 0.000000 0.000000 0.000000 0.000000 0.000000 0.000000 0.000000 0.000000 0.000000 0.000000 
0.550533 365.283 3.061332 -0.026906 90.000000 0.000000 4.000000 90.084738 0.001479 10000.000000 900.289111 2.000000 -0.483008 4.916992 -0.013473 19.624687 1.766789 11.106136 -0.001837 0.177359 -6104.916992 1914.860962 -0.530112 0.013677 0.917964 90.084723 3410.543701 0.041196 0.040975 0.001598 0.001596 0.000000 0.000000 0.000000 0.000000 0.000000 0.000000 0.000000 0.000000 0.000000 0.000000 0.000000 0.000000 0.000000 0.000000 0.000000 0.000000 0.000000 0.000000 0.000000 0.000000 0.000000 
0.567233 365.3 3.061900 -0.028861 90.000000 0.000000 4.000000 90.082443 0.001439 10000.000000 896.170854 2.000000 -0.482520 4.917480 -0.013473 19.734767 1.768572 11.157172 -0.001902 0.178220 -6104.917480 1915.046631 -0.530122 0.013267 0.918401 90.082428 3423.768311 0.041205 0.040987 0.001599 0.001596 0.000000 0.000000 0.000000 0.000000 0.000000 0.000000 0.000000 0.000000 0.000000 0.000000 0.000000 0.000000 0.000000 0.000000 0.000000 0.000000 0.000000 0.000000 0.000000 0.000000 0.000000 
0.5839 365.317 3.061923 -0.031136 90.000000 0.000000 4.000000 90.080080 0.001398 10000.000000 892.090787 2.000000 -0.482520 4.917480 -0.015985 19.845163 1.770369 11.208199 -0.002000 0.179090 -6104.917480 1915.233032 -0.530133 0.012966 0.918831 90.080065 3436.884033 0.041200 0.040979 0.001599 0.001596 0.000000 0.000000 0.000000 0.000000 0.000000 0.000000 0.000000 0.000000 0.000000 0.000000 0.000000 0.000000 0.000000 0.000000 0.000000 0.000000 0.000000 0.000000 0.000000 0.000000 0.000000 
0.6006 365.333 3.061064 -0.033822 90.000000 0.000000 4.000000 90.077648 0.001355 10000.000000 888.049883 2.000000 -0.482031 4.917969 -0.019126 19.955875 1.772181 11.259198 -0.002129 0.179961 -6104.917969 1915.420166 -0.530144 0.012845 0.919242 90.077633 3449.983643 0.041186 0.040955 0.001598 0.001596 0.000000 0.000000 0.000000 0.000000 0.000000 0.000000 0.000000 0.000000 0.000000 0.000000 0.000000 0.000000 0.000000 0.000000 0.000000 0.000000 0.000000 0.000000 0.000000 0.000000 0.000000 
0.617267 365.35 3.059455 -0.037062 90.000000 0.000000 4.000000 90.075135 0.001311 10000.000000 884.048106 2.000000 -0.482031 4.917969 -0.019126 20.067147 1.774032 11.310163 -0.002303 0.180832 -6104.917969 1915.608276 -0.530156 0.012957 0.919616 90.075120 3463.096191 0.041171 0.040923 0.001597 0.001595 0.000000 0.000000 0.000000 0.000000 0.000000 0.000000 0.000000 0.000000 0.000000 0.000000 0.000000 0.000000 0.000000 0.000000 0.000000 0.000000 0.000000 0.000000 0.000000 0.000000 0.000000 
0.633967 365.367 3.057484 -0.040460 90.000000 0.000000 4.000000 90.072505 0.001265 10000.000000 880.085113 2.000000 -0.481543 4.918457 -0.023680 20.178856 1.775911 11.361091 -0.002507 0.181704 -6104.918457 1915.797241 -0.530168 0.013341 0.919942 90.072490 3476.210693 0.041160 0.040889 0.001596 0.001595 0.000000 0.000000 0.000000 0.000000 0.000000 0.000000 0.000000 0.000000 0.000000 0.000000 0.000000 0.000000 0.000000 0.000000 0.000000 0.000000 0.000000 0.000000 0.000000 0.000000 0.000000 
0.650633 365.383 3.055460 -0.044731 90.000000 0.000000 4.000000 90.069732 0.001217 10000.000000 876.159909 2.000000 -0.481543 4.918457 -0.023680 20.291004 1.777816 11.411986 -0.002767 0.182576 -6104.918457 1915.987061 -0.530180 0.014027 0.920215 90.069717 3489.306396 0.041156 0.040853 0.001594 0.001595 0.000000 0.000000 0.000000 0.000000 0.000000 0.000000 0.000000 0.000000 0.000000 0.000000 0.000000 0.000000 0.000000 0.000000 0.000000 0.000000 0.000000 0.000000 0.000000 0.000000 0.000000 
0.667333 365.4 3.053642 -0.048833 90.000000 0.000000 4.000000 90.066966 0.001169 10000.000000 872.513797 2.000000 -0.481543 4.918457 -0.029176 20.391626 1.779198 11.459674 -0.003039 0.183393 -6104.918457 1916.165771 -0.530191 0.014961 0.920419 90.066951 3501.555664 0.041155 0.040818 0.001593 0.001595 0.000000 0.000000 0.000000 0.000000 0.000000 0.000000 0.000000 0.000000 0.000000 0.000000 0.000000 0.000000 0.000000 0.000000 0.000000 0.000000 0.000000 0.000000 0.000000 0.000000 0.000000 
0.684 365.417 3.051682 -0.054510 90.000000 0.000000 4.000000 90.063592 0.001110 10000.000000 868.420514 2.000000 -0.481055 4.918945 -0.029176 20.516612 1.781705 11.513687 -0.003410 0.184317 -6104.918945 1916.369263 -0.530204 0.016376 0.920590 90.063577 3515.402588 0.041159 0.040773 0.001592 0.001595 0.000000 0.000000 0.000000 0.000000 0.000000 0.000000 0.000000 0.000000 0.000000 0.000000 0.000000 0.000000 0.000000 0.000000 0.000000 0.000000 0.000000 0.000000 0.000000 0.000000 0.000000 
0.7007 365.433 3.049875 -0.060020 90.000000 0.000000 4.000000 90.060142 0.001050 10000.000000 864.605144 2.000000 -0.481055 4.918945 -0.034358 20.629951 1.783676 11.564493 -0.003792 0.185188 -6104.918945 1916.561523 -0.530215 0.018056 0.920694 90.060127 3528.403564 0.041165 0.040729 0.001591 0.001595 0.000000 0.000000 0.000000 0.000000 0.000000 0.000000 0.000000 0.000000 0.000000 0.000000 0.000000 0.000000 0.000000 0.000000 0.000000 0.000000 0.000000 0.000000 0.000000 0.000000 0.000000 
0.717367 365.45 3.048142 -0.065844 90.000000 0.000000 4.000000 90.056618 0.000988 10000.000000 861.060666 2.000000 -0.481055 4.918945 -0.034358 20.731765 1.785131 11.612096 -0.004191 0.186006 -6104.918945 1916.742676 -0.530225 0.019948 0.920739 90.056603 3540.568359 0.041172 0.040688 0.001591 0.001595 0.000000 0.000000 0.000000 0.000000 0.000000 0.000000 0.000000 0.000000 0.000000 0.000000 0.000000 0.000000 0.000000 0.000000 0.000000 0.000000 0.000000 0.000000 0.000000 0.000000 0.000000 
0.734067 365.467 3.046146 -0.071891 90.000000 0.000000 4.000000 90.052240 0.000912 10000.000000 857.081040 2.000000 -0.481055 4.918945 -0.039383 20.858064 1.787705 11.666011 -0.004651 0.186935 -6104.918945 1916.948730 -0.530236 0.022437 0.920729 90.052225 3554.332520 0.041179 0.040643 0.001590 0.001596 0.000000 0.000000 0.000000 0.000000 0.000000 0.000000 0.000000 0.000000 0.000000 0.000000 0.000000 0.000000 0.000000 0.000000 0.000000 0.000000 0.000000 0.000000 0.000000 0.000000 0.000000 
0.750733 365.483 3.044267 -0.077891 90.000000 0.000000 4.000000 90.047705 0.000833 10000.000000 853.371321 2.000000 -0.480566 4.919434 -0.039383 20.972839 1.789762 11.716723 -0.005102 0.187808 -6104.919434 1917.143677 -0.530244 0.025090 0.920659 90.047690 3567.265869 0.041187 0.040597 0.001591 0.001597 0.000000 0.000000 0.000000 0.000000 0.000000 0.000000 0.000000 0.000000 0.000000 0.000000 0.000000 0.000000 0.000000 0.000000 0.000000 0.000000 0.000000 0.000000 0.000000 0.000000 0.000000 
0.767433 365.5 3.042399 -0.083387 90.000000 0.000000 4.000000 90.042725 0.000746 10000.000000 849.695781 2.000000 -0.480566 4.919434 -0.042681 21.087929 1.791832 11.767405 -0.005544 0.188675 -6104.919434 1917.339355 -0.530252 0.027991 0.920529 90.042710 3580.175781 0.041195 0.040550 0.001592 0.001598 0.000000 0.000000 0.000000 0.000000 0.000000 0.000000 0.000000 0.000000 0.000000 0.000000 0.000000 0.000000 0.000000 0.000000 0.000000 0.000000 0.000000 0.000000 0.000000 0.000000 0.000000 
0.7841 365.517 3.040552 -0.088416 90.000000 0.000000 4.000000 90.037289 0.000651 10000.000000 846.053951 2.000000 -0.480566 4.919434 -0.042681 21.203579 1.793937 11.818056 -0.005958 0.189533 -6104.919434 1917.536011 -0.530258 0.031078 0.920339 90.037274 3593.059082 0.041201 0.040502 0.001594 0.001599 0.000000 0.000000 0.000000 0.000000 0.000000 0.000000 0.000000 0.000000 0.000000 0.000000 0.000000 0.000000 0.000000 0.000000 0.000000 0.000000 0.000000 0.000000 0.000000 0.000000 0.000000 
0.8008 365.533 3.039069 -0.091736 90.000000 0.000000 4.000000 90.032528 0.000568 10000.000000 843.119498 2.000000 -0.480566 4.919434 -0.044722 21.282435 1.794364 11.859188 -0.006261 0.190220 -6104.919434 1917.696289 -0.530262 0.033656 0.920140 90.032513 3603.506104 0.041203 0.040464 0.001596 0.001600 0.000000 0.000000 0.000000 0.000000 0.000000 0.000000 0.000000 0.000000 0.000000 0.000000 0.000000 0.000000 0.000000 0.000000 0.000000 0.000000 0.000000 0.000000 0.000000 0.000000 0.000000 
0.817467 365.55 3.037037 -0.095646 90.000000 0.000000 4.000000 90.025418 0.000444 10000.000000 839.092121 2.000000 -0.480566 4.919434 -0.045193 21.423497 1.797629 11.916108 -0.006621 0.191151 -6104.919434 1917.919189 -0.530265 0.037225 0.919798 90.025403 3617.940918 0.041201 0.040412 0.001600 0.001603 0.000000 0.000000 0.000000 0.000000 0.000000 0.000000 0.000000 0.000000 0.000000 0.000000 0.000000 0.000000 0.000000 0.000000 0.000000 0.000000 0.000000 0.000000 0.000000 0.000000 0.000000 
0.834167 365.567 3.035241 -0.098216 90.000000 0.000000 4.000000 90.018608 0.000325 10000.000000 835.546554 2.000000 -0.480566 4.919434 -0.045193 21.540338 1.799796 11.966673 -0.006867 0.191956 -6104.919434 1918.118286 -0.530268 0.040288 0.919429 90.018593 3630.742188 0.041194 0.040367 0.001605 0.001606 0.000000 0.000000 0.000000 0.000000 0.000000 0.000000 0.000000 0.000000 0.000000 0.000000 0.000000 0.000000 0.000000 0.000000 0.000000 0.000000 0.000000 0.000000 0.000000 0.000000 0.000000 
0.850833 365.583 3.033448 -0.100061 90.000000 0.000000 4.000000 90.011361 0.000198 10000.000000 832.033004 2.000000 -0.480566 4.919434 -0.044722 21.657496 1.801975 12.017207 -0.007039 0.192733 -6104.919434 1918.318115 -0.530269 0.043141 0.918999 90.011346 3643.516357 0.041181 0.040325 0.001611 0.001610 0.000000 0.000000 0.000000 0.000000 0.000000 0.000000 0.000000 0.000000 0.000000 0.000000 0.000000 0.000000 0.000000 0.000000 0.000000 0.000000 0.000000 0.000000 0.000000 0.000000 0.000000 
0.867533 365.6 3.031655 -0.101202 90.000000 0.000000 4.000000 90.003718 0.000065 10000.000000 828.550909 2.000000 -0.481055 4.918945 -0.044722 21.775213 1.804187 12.067713 -0.007132 0.193479 -6104.918945 1918.518921 -0.530269 0.045689 0.918508 90.003703 3656.263672 0.041162 0.040286 0.001619 0.001614 0.000000 0.000000 0.000000 0.000000 0.000000 0.000000 0.000000 0.000000 0.000000 0.000000 0.000000 0.000000 0.000000 0.000000 0.000000 0.000000 0.000000 0.000000 0.000000 0.000000 0.000000 
0.8842 365.617 3.029972 -0.101943 90.000000 0.000000 4.000000 89.996232 -0.000066 10000.000000 825.314744 2.000000 -0.481055 4.918945 -0.043937 21.880672 1.805844 12.115034 -0.007156 0.194150 -6104.918945 1918.707886 -0.530269 0.047735 0.917992 89.996217 3668.189697 0.041140 0.040251 0.001627 0.001620 0.000000 0.000000 0.000000 0.000000 0.000000 0.000000 0.000000 0.000000 0.000000 0.000000 0.000000 0.000000 0.000000 0.000000 0.000000 0.000000 0.000000 0.000000 0.000000 0.000000 0.000000 
0.9009 365.633 3.028062 -0.102500 90.000000 0.000000 4.000000 89.987414 -0.000220 10000.000000 821.679740 2.000000 -0.481055 4.918945 -0.043937 22.011716 1.808658 12.168633 -0.007114 0.194873 -6104.918945 1918.922852 -0.530268 0.049600 0.917343 89.987400 3681.677979 0.041111 0.040216 0.001638 0.001626 0.000000 0.000000 0.000000 0.000000 0.000000 0.000000 0.000000 0.000000 0.000000 0.000000 0.000000 0.000000 0.000000 0.000000 0.000000 0.000000 0.000000 0.000000 0.000000 0.000000 0.000000 
0.917567 365.65 3.026273 -0.103106 90.000000 0.000000 4.000000 89.978863 -0.000369 10000.000000 818.289780 2.000000 -0.481543 4.918457 -0.043466 22.130625 1.810926 12.219049 -0.007026 0.195524 -6104.918457 1919.126099 -0.530268 0.050899 0.916673 89.978848 3694.346191 0.041079 0.040186 0.001648 0.001633 0.000000 0.000000 0.000000 0.000000 0.000000 0.000000 0.000000 0.000000 0.000000 0.000000 0.000000 0.000000 0.000000 0.000000 0.000000 0.000000 0.000000 0.000000 0.000000 0.000000 0.000000 
0.934267 365.667 3.024482 -0.103914 90.000000 0.000000 4.000000 89.970100 -0.000522 10000.000000 814.929641 2.000000 -0.481543 4.918457 -0.043466 22.249971 1.813216 12.269436 -0.006906 0.196153 -6104.918457 1919.330200 -0.530268 0.051782 0.915956 89.970085 3706.989502 0.041046 0.040158 0.001659 0.001641 0.000000 0.000000 0.000000 0.000000 0.000000 0.000000 0.000000 0.000000 0.000000 0.000000 0.000000 0.000000 0.000000 0.000000 0.000000 0.000000 0.000000 0.000000 0.000000 0.000000 0.000000 
0.950933 365.683 3.022655 -0.105041 90.000000 0.000000 4.000000 89.961180 -0.000678 10000.000000 811.599058 2.000000 -0.481543 4.918457 -0.043309 22.369755 1.815527 12.319791 -0.006769 0.196767 -6104.918457 1919.535156 -0.530269 0.052301 0.915199 89.961165 3719.609131 0.041013 0.040132 0.001670 0.001649 0.000000 0.000000 0.000000 0.000000 0.000000 0.000000 0.000000 0.000000 0.000000 0.000000 0.000000 0.000000 0.000000 0.000000 0.000000 0.000000 0.000000 0.000000 0.000000 0.000000 0.000000 
0.967633 365.7 3.020774 -0.106472 90.000000 0.000000 4.000000 89.952150 -0.000835 10000.000000 808.297768 2.000000 -0.482031 4.917969 -0.043309 22.489977 1.817860 12.370114 -0.006629 0.197372 -6104.917969 1919.740967 -0.530270 0.052519 0.914412 89.952135 3732.208252 0.040984 0.040107 0.001680 0.001657 0.000000 0.000000 0.000000 0.000000 0.000000 0.000000 0.000000 0.000000 0.000000 0.000000 0.000000 0.000000 0.000000 0.000000 0.000000 0.000000 0.000000 0.000000 0.000000 0.000000 0.000000 
0.9843 365.717 3.018891 -0.108203 90.000000 0.000000 4.000000 89.943032 -0.000994 10000.000000 805.025204 2.000000 -0.482520 4.917480 -0.043466 22.610515 1.820203 12.420406 -0.006497 0.197970 -6104.917480 1919.947510 -0.530271 0.052511 0.913602 89.943017 3744.789551 0.040956 0.040083 0.001689 0.001664 0.000000 0.000000 0.000000 0.000000 0.000000 0.000000 0.000000 0.000000 0.000000 0.000000 0.000000 0.000000 0.000000 0.000000 0.000000 0.000000 0.000000 0.000000 0.000000 0.000000 0.000000 
1.001 365.733 3.017030 -0.110162 90.000000 0.000000 4.000000 89.933866 -0.001154 10000.000000 801.781056 2.000000 -0.482520 4.917480 -0.043780 22.731612 1.822578 12.470668 -0.006381 0.198564 -6104.917480 1920.155029 -0.530273 0.052357 0.912775 89.933851 3757.352783 0.040928 0.040059 0.001697 0.001670 0.000000 0.000000 0.000000 0.000000 0.000000 0.000000 0.000000 0.000000 0.000000 0.000000 0.000000 0.000000 0.000000 0.000000 0.000000 0.000000 0.000000 0.000000 0.000000 0.000000 0.000000 
1.01767 365.75 3.015188 -0.112240 90.000000 0.000000 4.000000 89.924672 -0.001315 10000.000000 798.564957 2.000000 -0.483008 4.916992 -0.043780 22.853026 1.824963 12.520899 -0.006287 0.199155 -6104.916992 1920.363281 -0.530275 0.052137 0.911938 89.924657 3769.895508 0.040900 0.040036 0.001703 0.001675 0.000000 0.000000 0.000000 0.000000 0.000000 0.000000 0.000000 0.000000 0.000000 0.000000 0.000000 0.000000 0.000000 0.000000 0.000000 0.000000 0.000000 0.000000 0.000000 0.000000 0.000000 
1.03437 365.767 3.013364 -0.114304 90.000000 0.000000 4.000000 89.915465 -0.001475 10000.000000 795.376365 2.000000 -0.483496 4.916504 -0.043937 22.974877 1.827367 12.571100 -0.006215 0.199743 -6104.916504 1920.572388 -0.530278 0.051920 0.911098 89.915450 3782.415283 0.040873 0.040013 0.001708 0.001678 0.000000 0.000000 0.000000 0.000000 0.000000 0.000000 0.000000 0.000000 0.000000 0.000000 0.000000 0.000000 0.000000 0.000000 0.000000 0.000000 0.000000 0.000000 0.000000 0.000000 0.000000 
1.05103 365.783 3.011556 -0.116196 90.000000 0.000000 4.000000 89.906251 -0.001636 10000.000000 792.215171 2.000000 -0.483984 4.916016 -0.043937 23.097166 1.829793 12.621271 -0.006163 0.200331 -6104.916016 1920.782349 -0.530281 0.051761 0.910260 89.906236 3794.911865 0.040848 0.039989 0.001712 0.001681 0.000000 0.000000 0.000000 0.000000 0.000000 0.000000 0.000000 0.000000 0.000000 0.000000 0.000000 0.000000 0.000000 0.000000 0.000000 0.000000 0.000000 0.000000 0.000000 0.000000 0.000000 
1.06773 365.8 3.009755 -0.117818 90.000000 0.000000 4.000000 89.897037 -0.001797 10000.000000 789.080786 2.000000 -0.484473 4.915527 -0.043937 23.219893 1.832237 12.671412 -0.006124 0.200918 -6104.915527 1920.993164 -0.530285 0.051697 0.909429 89.897022 3807.385010 0.040823 0.039964 0.001714 0.001682 0.000000 0.000000 0.000000 0.000000 0.000000 0.000000 0.000000 0.000000 0.000000 0.000000 0.000000 0.000000 0.000000 0.000000 0.000000 0.000000 0.000000 0.000000 0.000000 0.000000 0.000000 
1.0844 365.817 3.007953 -0.119103 90.000000 0.000000 4.000000 89.887830 -0.001958 10000.000000 785.973051 2.000000 -0.484961 4.915039 -0.043937 23.343057 1.834701 12.721523 -0.006096 0.201505 -6104.915039 1921.204834 -0.530289 0.051744 0.908608 89.887815 3819.835938 0.040799 0.039939 0.001715 0.001683 0.000000 0.000000 0.000000 0.000000 0.000000 0.000000 0.000000 0.000000 0.000000 0.000000 0.000000 0.000000 0.000000 0.000000 0.000000 0.000000 0.000000 0.000000 0.000000 0.000000 0.000000 
1.1011 365.833 3.006146 -0.120064 90.000000 0.000000 4.000000 89.878630 -0.002118 10000.000000 782.891627 2.000000 -0.485449 4.914551 -0.043937 23.466660 1.837185 12.771604 -0.006071 0.202093 -6104.914551 1921.417358 -0.530294 0.051905 0.907801 89.878615 3832.264893 0.040777 0.039913 0.001716 0.001683 0.000000 0.000000 0.000000 0.000000 0.000000 0.000000 0.000000 0.000000 0.000000 0.000000 0.000000 0.000000 0.000000 0.000000 0.000000 0.000000 0.000000 0.000000 0.000000 0.000000 0.000000 
1.11777 365.85 3.004332 -0.120755 90.000000 0.000000 4.000000 89.869437 -0.002279 10000.000000 779.836011 2.000000 -0.485938 4.914062 -0.043937 23.590578 1.839678 12.821654 -0.006048 0.202683 -6104.914063 1921.630615 -0.530299 0.052169 0.907011 89.869422 3844.672363 0.040755 0.039887 0.001715 0.001683 0.000000 0.000000 0.000000 0.000000 0.000000 0.000000 0.000000 0.000000 0.000000 0.000000 0.000000 0.000000 0.000000 0.000000 0.000000 0.000000 0.000000 0.000000 0.000000 0.000000 0.000000 
1.13447 365.867 3.002626 -0.121214 90.000000 0.000000 4.000000 89.860817 -0.002429 10000.000000 776.994738 2.000000 -0.486426 4.913574 -0.043937 23.701506 1.841595 12.868548 -0.006024 0.203239 -6104.913574 1921.831299 -0.530304 0.052492 0.906286 89.860802 3856.284912 0.040735 0.039862 0.001715 0.001682 0.000000 0.000000 0.000000 0.000000 0.000000 0.000000 0.000000 0.000000 0.000000 0.000000 0.000000 0.000000 0.000000 0.000000 0.000000 0.000000 0.000000 0.000000 0.000000 0.000000 0.000000 
1.15113 365.883 3.000356 -0.121584 90.000000 0.000000 4.000000 89.851050 -0.002600 10000.000000 773.801775 2.000000 -0.487402 4.912598 -0.043937 23.839728 1.844722 12.921658 -0.005993 0.203870 -6104.912598 1922.059692 -0.530310 0.052923 0.905484 89.851035 3867.287598 0.040819 0.039939 0.001714 0.001681 0.000000 0.000000 0.000000 0.000000 0.000000 0.000000 0.000000 0.000000 0.000000 0.000000 0.000000 0.000000 0.000000 0.000000 0.000000 0.000000 0.000000 0.000000 0.000000 0.000000 0.000000 
1.16783 365.9 3.033570 -0.121830 90.000000 0.000000 4.000000 89.841849 -0.002760 10000.000000 770.725180 2.000000 -0.487891 4.912109 -0.044094 23.964960 1.847040 12.973246 -0.005957 0.204637 -6104.912109 1922.275513 -0.530316 0.053368 0.905051 89.841835 3848.116699 0.044083 0.043145 0.001774 0.001743 0.000000 0.000000 0.000000 0.000000 0.000000 0.000000 0.000000 0.000000 0.000000 0.000000 0.000000 0.000000 0.000000 0.000000 0.000000 0.000000 0.000000 0.000000 0.000000 0.000000 0.000000 
1.1845 365.917 3.199567 -0.121932 90.000000 0.000000 4.000000 89.832636 -0.002921 10000.000000 767.388731 2.000000 -0.488379 4.911621 -0.044094 24.090629 1.848688 13.029649 -0.005908 0.206085 -6104.911621 1922.492188 -0.530319 0.053846 0.906274 89.832621 3783.058838 0.048914 0.047836 0.001906 0.001880 0.000000 0.000000 0.000000 0.000000 0.000000 0.000000 0.000000 0.000000 0.000000 0.000000 0.000000 0.000000 0.000000 0.000000 0.000000 0.000000 0.000000 0.000000 0.000000 0.000000 0.000000 
1.2012 365.933 3.420212 -0.121768 90.000000 0.000000 4.000000 89.823401 -0.003082 10000.000000 763.879267 2.000000 -0.489355 4.910645 -0.044408 24.216981 1.849885 13.089496 -0.005839 0.208446 -6104.910645 1922.709961 -0.530316 0.054331 0.910364 89.823386 3695.126709 0.050793 0.049591 0.001984 0.001973 0.000000 0.000000 0.000000 0.000000 0.000000 0.000000 0.000000 0.000000 0.000000 0.000000 0.000000 0.000000 0.000000 0.000000 0.000000 0.000000 0.000000 0.000000 0.000000 0.000000 0.000000 
1.21787 365.95 3.535247 -0.121971 90.000000 0.000000 4.000000 89.814153 -0.003244 10000.000000 760.416534 2.000000 -0.490332 4.909668 -0.044408 24.343770 1.851141 13.149076 -0.005769 0.211485 -6104.909668 1922.928589 -0.530304 0.054786 0.917228 89.814138 3610.563965 0.049286 0.048063 0.001959 0.001967 0.000000 0.000000 0.000000 0.000000 0.000000 0.000000 0.000000 0.000000 0.000000 0.000000 0.000000 0.000000 0.000000 0.000000 0.000000 0.000000 0.000000 0.000000 0.000000 0.000000 0.000000 
1.23457 365.967 3.499832 -0.122767 90.000000 0.000000 4.000000 89.804884 -0.003405 10000.000000 757.130993 2.000000 -0.490820 4.909180 -0.044722 24.471241 1.852794 13.206104 -0.005708 0.214797 -6104.909180 1923.148315 -0.530284 0.055205 0.925831 89.804870 3538.510254 0.046522 0.045359 0.001873 0.001902 0.000000 0.000000 0.000000 0.000000 0.000000 0.000000 0.000000 0.000000 0.000000 0.000000 0.000000 0.000000 0.000000 0.000000 0.000000 0.000000 0.000000 0.000000 0.000000 0.000000 0.000000 
1.25123 365.983 3.374932 -0.123995 90.000000 0.000000 4.000000 89.795616 -0.003567 10000.000000 754.035162 2.000000 -0.491797 4.908203 -0.044722 24.599150 1.854862 13.260294 -0.005659 0.218045 -6104.908203 1923.368896 -0.530259 0.055599 0.934983 89.795601 3476.367676 0.044108 0.043021 0.001782 0.001832 0.000000 0.000000 0.000000 0.000000 0.000000 0.000000 0.000000 0.000000 0.000000 0.000000 0.000000 0.000000 0.000000 0.000000 0.000000 0.000000 0.000000 0.000000 0.000000 0.000000 0.000000 
1.26793 366 3.235059 -0.125349 90.000000 0.000000 4.000000 89.786327 -0.003729 10000.000000 751.087942 2.000000 -0.492773 4.907227 -0.045036 24.727497 1.857253 13.312301 -0.005622 0.221007 -6104.907227 1923.590332 -0.530231 0.055981 0.943750 89.786312 3419.086670 0.042400 0.041370 0.001714 0.001779 0.000000 0.000000 0.000000 0.000000 0.000000 0.000000 0.000000 0.000000 0.000000 0.000000 0.000000 0.000000 0.000000 0.000000 0.000000 0.000000 0.000000 0.000000 0.000000 0.000000 0.000000 
1.2846 366.017 3.116887 -0.126677 90.000000 0.000000 4.000000 89.777017 -0.003892 10000.000000 748.252029 2.000000 -0.493750 4.906250 -0.045193 24.856282 1.859876 13.362736 -0.005592 0.223543 -6104.906250 1923.812622 -0.530203 0.056362 0.951486 89.777002 3363.713379 0.041108 0.040118 0.001667 0.001740 0.000000 0.000000 0.000000 0.000000 0.000000 0.000000 0.000000 0.000000 0.000000 0.000000 0.000000 0.000000 0.000000 0.000000 0.000000 0.000000 0.000000 0.000000 0.000000 0.000000 0.000000 
1.3013 366.033 3.021267 -0.127859 90.000000 0.000000 4.000000 89.767687 -0.004055 10000.000000 745.512019 2.000000 -0.494727 4.905273 -0.045193 24.985505 1.862699 13.411838 -0.005567 0.225547 -6104.905273 1924.035767 -0.530178 0.056749 0.957711 89.767672 3309.619141 0.039884 0.038926 0.001630 0.001704 0.000000 0.000000 0.000000 0.000000 0.000000 0.000000 0.000000 0.000000 0.000000 0.000000 0.000000 0.000000 0.000000 0.000000 0.000000 0.000000 0.000000 0.000000 0.000000 0.000000 0.000000 
1.31797 366.05 2.935094 -0.128885 90.000000 0.000000 4.000000 89.758330 -0.004218 10000.000000 742.868571 2.000000 -0.495703 4.904297 -0.045507 25.115165 1.865727 13.459563 -0.005541 0.226918 -6104.904297 1924.259766 -0.530159 0.057141 0.961998 89.758315 3258.293701 0.038580 0.037656 0.001596 0.001662 0.000000 0.000000 0.000000 0.000000 0.000000 0.000000 0.000000 0.000000 0.000000 0.000000 0.000000 0.000000 0.000000 0.000000 0.000000 0.000000 0.000000 0.000000 0.000000 0.000000 0.000000 
1.33467 366.067 2.849150 -0.129873 90.000000 0.000000 4.000000 89.748938 -0.004382 10000.000000 740.323818 2.000000 -0.496680 4.903320 -0.045507 25.245141 1.868958 13.505840 -0.005518 0.227566 -6104.903320 1924.484497 -0.530149 0.057539 0.963950 89.748924 3210.722168 0.037260 0.036370 0.001564 0.001616 0.000000 0.000000 0.000000 0.000000 0.000000 0.000000 0.000000 0.000000 0.000000 0.000000 0.000000 0.000000 0.000000 0.000000 0.000000 0.000000 0.000000 0.000000 0.000000 0.000000 0.000000 
1.35133 366.083 2.763259 -0.130795 90.000000 0.000000 4.000000 89.739513 -0.004546 10000.000000 737.873331 2.000000 -0.497656 4.902344 -0.045664 25.375433 1.872386 13.550718 -0.005493 0.227481 -6104.902344 1924.709961 -0.530149 0.057937 0.963244 89.739498 3166.834717 0.036023 0.035167 0.001537 0.001565 0.000000 0.000000 0.000000 0.000000 0.000000 0.000000 0.000000 0.000000 0.000000 0.000000 0.000000 0.000000 0.000000 0.000000 0.000000 0.000000 0.000000 0.000000 0.000000 0.000000 0.000000 
1.36803 366.1 2.681647 -0.131698 90.000000 0.000000 4.000000 89.730046 -0.004712 10000.000000 735.508190 2.000000 -0.499121 4.900879 -0.045664 25.506163 1.875999 13.594327 -0.005466 0.226827 -6104.900879 1924.936279 -0.530160 0.058325 0.959772 89.730031 3126.048828 0.034915 0.034093 0.001519 0.001520 0.000000 0.000000 0.000000 0.000000 0.000000 0.000000 0.000000 0.000000 0.000000 0.000000 0.000000 0.000000 0.000000 0.000000 0.000000 0.000000 0.000000 0.000000 0.000000 0.000000 0.000000 
1.3847 366.117 2.606104 -0.132449 90.000000 0.000000 4.000000 89.720538 -0.004878 10000.000000 733.220912 2.000000 -0.500098 4.899902 -0.045664 25.637086 1.879765 13.636777 -0.005433 0.225700 -6104.899902 1925.163208 -0.530179 0.058716 0.953546 89.720524 3087.885742 0.033940 0.033151 0.001511 0.001482 0.000000 0.000000 0.000000 0.000000 0.000000 0.000000 0.000000 0.000000 0.000000 0.000000 0.000000 0.000000 0.000000 0.000000 0.000000 0.000000 0.000000 0.000000 0.000000 0.000000 0.000000 
1.4014 366.133 2.536896 -0.133042 90.000000 0.000000 4.000000 89.710990 -0.005044 10000.000000 731.004939 2.000000 -0.501562 4.898438 -0.045664 25.768325 1.883677 13.678164 -0.005391 0.224149 -6104.898438 1925.390869 -0.530201 0.059099 0.944659 89.710975 3052.499756 0.033012 0.032247 0.001509 0.001445 0.000000 0.000000 0.000000 0.000000 0.000000 0.000000 0.000000 0.000000 0.000000 0.000000 0.000000 0.000000 0.000000 0.000000 0.000000 0.000000 0.000000 0.000000 0.000000 0.000000 0.000000 
1.41807 366.15 2.474689 -0.133549 90.000000 0.000000 4.000000 89.701995 -0.005201 10000.000000 728.992224 2.000000 -0.502539 4.897461 -0.045507 25.885476 1.887031 13.715981 -0.005344 0.222336 -6104.897461 1925.604858 -0.530223 0.059444 0.934031 89.701980 3022.812012 0.032104 0.031363 0.001508 0.001409 0.000000 0.000000 0.000000 0.000000 0.000000 0.000000 0.000000 0.000000 0.000000 0.000000 0.000000 0.000000 0.000000 0.000000 0.000000 0.000000 0.000000 0.000000 0.000000 0.000000 0.000000 
1.43477 366.167 2.404512 -0.134066 90.000000 0.000000 4.000000 89.691756 -0.005380 10000.000000 726.785781 2.000000 -0.504004 4.895996 -0.045507 26.031507 1.891933 13.757685 -0.005282 0.219876 -6104.895996 1925.848145 -0.530243 0.059812 0.919462 89.691741 2993.428467 0.031114 0.030400 0.001509 0.001369 0.000000 0.000000 0.000000 0.000000 0.000000 0.000000 0.000000 0.000000 0.000000 0.000000 0.000000 0.000000 0.000000 0.000000 0.000000 0.000000 0.000000 0.000000 0.000000 0.000000 0.000000 
1.45143 366.183 2.341109 -0.134607 90.000000 0.000000 4.000000 89.682085 -0.005549 10000.000000 724.775460 2.000000 -0.505469 4.894531 -0.045664 26.163449 1.896263 13.795910 -0.005219 0.217183 -6104.894531 1926.077759 -0.530254 0.060133 0.903494 89.682070 2969.221436 0.030289 0.029598 0.001514 0.001334 0.000000 0.000000 0.000000 0.000000 0.000000 0.000000 0.000000 0.000000 0.000000 0.000000 0.000000 0.000000 0.000000 0.000000 0.000000 0.000000 0.000000 0.000000 0.000000 0.000000 0.000000 
1.46813 366.2 2.283754 -0.135268 90.000000 0.000000 4.000000 89.672379 -0.005718 10000.000000 722.820822 2.000000 -0.506934 4.893066 -0.045664 26.295807 1.900716 13.833287 -0.005154 0.214144 -6104.893066 1926.308105 -0.530255 0.060435 0.885572 89.672364 2947.415527 0.029583 0.028913 0.001523 0.001304 0.000000 0.000000 0.000000 0.000000 0.000000 0.000000 0.000000 0.000000 0.000000 0.000000 0.000000 0.000000 0.000000 0.000000 0.000000 0.000000 0.000000 0.000000 0.000000 0.000000 0.000000 
1.4848 366.217 2.237091 -0.135993 90.000000 0.000000 4.000000 89.663247 -0.005877 10000.000000 721.031554 2.000000 -0.507910 4.892090 -0.045978 26.413733 1.904513 13.867684 -0.005095 0.211001 -6104.892090 1926.524536 -0.530244 0.060705 0.867233 89.663232 2928.455566 0.029026 0.028372 0.001533 0.001280 0.000000 0.000000 0.000000 0.000000 0.000000 0.000000 0.000000 0.000000 0.000000 0.000000 0.000000 0.000000 0.000000 0.000000 0.000000 0.000000 0.000000 0.000000 0.000000 0.000000 0.000000 
1.5015 366.233 2.192587 -0.136988 90.000000 0.000000 4.000000 89.652872 -0.006059 10000.000000 719.046980 2.000000 -0.509375 4.890625 -0.046764 26.560782 1.909845 13.906042 -0.005033 0.207126 -6104.890625 1926.770508 -0.530216 0.061007 0.844958 89.652857 2908.203857 0.028473 0.027835 0.001546 0.001258 0.000000 0.000000 0.000000 0.000000 0.000000 0.000000 0.000000 0.000000 0.000000 0.000000 0.000000 0.000000 0.000000 0.000000 0.000000 0.000000 0.000000 0.000000 0.000000 0.000000 0.000000 
1.51817 366.25 2.156891 -0.138162 90.000000 0.000000 4.000000 89.643070 -0.006230 10000.000000 717.217058 2.000000 -0.511328 4.888672 -0.046764 26.693499 1.914503 13.941603 -0.004985 0.203199 -6104.888672 1927.002563 -0.530175 0.061303 0.822847 89.643056 2890.163818 0.027993 0.027368 0.001556 0.001241 0.000000 0.000000 0.000000 0.000000 0.000000 0.000000 0.000000 0.000000 0.000000 0.000000 0.000000 0.000000 0.000000 0.000000 0.000000 0.000000 0.000000 0.000000 0.000000 0.000000 0.000000 
1.53487 366.267 2.124914 -0.139571 90.000000 0.000000 4.000000 89.633235 -0.006401 10000.000000 715.421856 2.000000 -0.512793 4.887207 -0.047863 26.826410 1.919220 13.976670 -0.004948 0.199023 -6104.887207 1927.235229 -0.530118 0.061628 0.799911 89.633220 2873.123535 0.027534 0.026921 0.001565 0.001226 0.000000 0.000000 0.000000 0.000000 0.000000 0.000000 0.000000 0.000000 0.000000 0.000000 0.000000 0.000000 0.000000 0.000000 0.000000 0.000000 0.000000 0.000000 0.000000 0.000000 0.000000 
1.55153 366.283 2.095088 -0.141230 90.000000 0.000000 4.000000 89.623365 -0.006574 10000.000000 713.659806 2.000000 -0.514258 4.885742 -0.047863 26.959514 1.923992 14.011265 -0.004928 0.194621 -6104.885742 1927.468506 -0.530046 0.061999 0.776409 89.623351 2857.162598 0.027092 0.026488 0.001570 0.001213 0.000000 0.000000 0.000000 0.000000 0.000000 0.000000 0.000000 0.000000 0.000000 0.000000 0.000000 0.000000 0.000000 0.000000 0.000000 0.000000 0.000000 0.000000 0.000000 0.000000 0.000000 
1.56823 366.3 2.066622 -0.143101 90.000000 0.000000 4.000000 89.613434 -0.006747 10000.000000 711.929761 2.000000 -0.515723 4.884277 -0.049276 27.092690 1.928809 14.045400 -0.004923 0.190015 -6104.884277 1927.702271 -0.529960 0.062437 0.752581 89.613419 2842.345947 0.026666 0.026071 0.001573 0.001201 0.000000 0.000000 0.000000 0.000000 0.000000 0.000000 0.000000 0.000000 0.000000 0.000000 0.000000 0.000000 0.000000 0.000000 0.000000 0.000000 0.000000 0.000000 0.000000 0.000000 0.000000 
1.5849 366.317 2.039310 -0.145329 90.000000 0.000000 4.000000 89.603449 -0.006921 10000.000000 710.230403 2.000000 -0.517676 4.882324 -0.049276 27.226060 1.933678 14.079094 -0.004939 0.185230 -6104.882324 1927.936646 -0.529863 0.062961 0.728646 89.603434 2828.685303 0.026261 0.025673 0.001573 0.001191 0.000000 0.000000 0.000000 0.000000 0.000000 0.000000 0.000000 0.000000 0.000000 0.000000 0.000000 0.000000 0.000000 0.000000 0.000000 0.000000 0.000000 0.000000 0.000000 0.000000 0.000000 
1.6016 366.333 2.013254 -0.147564 90.000000 0.000000 4.000000 89.593388 -0.007097 10000.000000 708.560110 2.000000 -0.519141 4.880859 -0.050532 27.359623 1.938594 14.112370 -0.004966 0.180293 -6104.880859 1928.171631 -0.529756 0.063584 0.704809 89.593373 2816.138428 0.025881 0.025299 0.001571 0.001183 0.000000 0.000000 0.000000 0.000000 0.000000 0.000000 0.000000 0.000000 0.000000 0.000000 0.000000 0.000000 0.000000 0.000000 0.000000 0.000000 0.000000 0.000000 0.000000 0.000000 0.000000 
1.61827 366.35 1.988641 -0.149889 90.000000 0.000000 4.000000 89.583238 -0.007274 10000.000000 706.917337 2.000000 -0.521094 4.878906 -0.050532 27.493258 1.943546 14.145254 -0.005007 0.175235 -6104.878906 1928.407104 -0.529641 0.064311 0.681258 89.583223 2804.629639 0.025527 0.024948 0.001567 0.001177 0.000000 0.000000 0.000000 0.000000 0.000000 0.000000 0.000000 0.000000 0.000000 0.000000 0.000000 0.000000 0.000000 0.000000 0.000000 0.000000 0.000000 0.000000 0.000000 0.000000 0.000000 
1.63497 366.367 1.965586 -0.152033 90.000000 0.000000 4.000000 89.572993 -0.007453 10000.000000 705.300285 2.000000 -0.523047 4.876953 -0.051318 27.627087 1.948539 14.177773 -0.005048 0.170087 -6104.876953 1928.643188 -0.529522 0.065140 0.658169 89.572978 2794.062500 0.025198 0.024622 0.001563 0.001172 0.000000 0.000000 0.000000 0.000000 0.000000 0.000000 0.000000 0.000000 0.000000 0.000000 0.000000 0.000000 0.000000 0.000000 0.000000 0.000000 0.000000 0.000000 0.000000 0.000000 0.000000 
1.65163 366.383 1.944095 -0.154012 90.000000 0.000000 4.000000 89.562645 -0.007633 10000.000000 703.707380 2.000000 -0.525000 4.875000 -0.051318 27.760987 1.953561 14.209951 -0.005087 0.164887 -6104.875000 1928.879761 -0.529402 0.066054 0.635702 89.562630 2784.325195 0.024893 0.024319 0.001558 0.001169 0.000000 0.000000 0.000000 0.000000 0.000000 0.000000 0.000000 0.000000 0.000000 0.000000 0.000000 0.000000 0.000000 0.000000 0.000000 0.000000 0.000000 0.000000 0.000000 0.000000 0.000000 
1.66833 366.4 1.924050 -0.155625 90.000000 0.000000 4.000000 89.552174 -0.007816 10000.000000 702.137403 2.000000 -0.526953 4.873047 -0.051632 27.894959 1.958609 14.241810 -0.005114 0.159669 -6104.873047 1929.116821 -0.529283 0.067030 0.614004 89.552159 2775.364502 0.024609 0.024036 0.001552 0.001167 0.000000 0.000000 0.000000 0.000000 0.000000 0.000000 0.000000 0.000000 0.000000 0.000000 0.000000 0.000000 0.000000 0.000000 0.000000 0.000000 0.000000 0.000000 0.000000 0.000000 0.000000 
1.685 366.417 1.905279 -0.156937 90.000000 0.000000 4.000000 89.541594 -0.008001 10000.000000 700.589067 2.000000 -0.528906 4.871094 -0.051632 28.029125 1.963690 14.273368 -0.005124 0.154473 -6104.871094 1929.354492 -0.529168 0.068033 0.593208 89.541579 2767.148926 0.024344 0.023772 0.001547 0.001168 0.000000 0.000000 0.000000 0.000000 0.000000 0.000000 0.000000 0.000000 0.000000 0.000000 0.000000 0.000000 0.000000 0.000000 0.000000 0.000000 0.000000 0.000000 0.000000 0.000000 0.000000 
1.7017 366.433 1.887631 -0.157915 90.000000 0.000000 4.000000 89.530905 -0.008187 10000.000000 699.061246 2.000000 -0.530859 4.869141 -0.051475 28.163362 1.968791 14.304643 -0.005112 0.149335 -6104.869141 1929.592651 -0.529061 0.069028 0.573430 89.530890 2759.650146 0.024097 0.023525 0.001542 0.001170 0.000000 0.000000 0.000000 0.000000 0.000000 0.000000 0.000000 0.000000 0.000000 0.000000 0.000000 0.000000 0.000000 0.000000 0.000000 0.000000 0.000000 0.000000 0.000000 0.000000 0.000000 
1.71837 366.45 1.871013 -0.158596 90.000000 0.000000 4.000000 89.520107 -0.008376 10000.000000 697.553020 2.000000 -0.532812 4.867188 -0.051161 28.297671 1.973913 14.335649 -0.005076 0.144293 -6104.867188 1929.831299 -0.528964 0.069977 0.554769 89.520092 2752.837646 0.023868 0.023297 0.001537 0.001173 0.000000 0.000000 0.000000 0.000000 0.000000 0.000000 0.000000 0.000000 0.000000 0.000000 0.000000 0.000000 0.000000 0.000000 0.000000 0.000000 0.000000 0.000000 0.000000 0.000000 0.000000 
1.73507 366.467 1.856320 -0.159042 90.000000 0.000000 4.000000 89.509895 -0.008554 10000.000000 696.155911 2.000000 -0.534766 4.865234 -0.051161 28.417158 1.978277 14.364490 -0.005019 0.139686 -6104.865234 1930.055542 -0.528884 0.070795 0.538365 89.509881 2747.043213 0.023669 0.023099 0.001534 0.001177 0.000000 0.000000 0.000000 0.000000 0.000000 0.000000 0.000000 0.000000 0.000000 0.000000 0.000000 0.000000 0.000000 0.000000 0.000000 0.000000 0.000000 0.000000 0.000000 0.000000 0.000000 
1.75173 366.483 1.840672 -0.159437 90.000000 0.000000 4.000000 89.498243 -0.008757 10000.000000 694.591298 2.000000 -0.537207 4.862793 -0.050532 28.566625 1.984213 14.396923 -0.004934 0.134645 -6104.862793 1930.310181 -0.528810 0.071608 0.521124 89.498228 2741.127441 0.023462 0.022893 0.001530 0.001184 0.000000 0.000000 0.000000 0.000000 0.000000 0.000000 0.000000 0.000000 0.000000 0.000000 0.000000 0.000000 0.000000 0.000000 0.000000 0.000000 0.000000 0.000000 0.000000 0.000000 0.000000 
1.76843 366.5 1.826053 -0.159691 90.000000 0.000000 4.000000 89.486516 -0.008962 10000.000000 693.045520 2.000000 -0.539160 4.860840 -0.050532 28.716286 1.990169 14.429107 -0.004825 0.129835 -6104.860840 1930.565430 -0.528754 0.072279 0.505380 89.486501 2735.858398 0.023273 0.022707 0.001526 0.001191 0.000000 0.000000 0.000000 0.000000 0.000000 0.000000 0.000000 0.000000 0.000000 0.000000 0.000000 0.000000 0.000000 0.000000 0.000000 0.000000 0.000000 0.000000 0.000000 0.000000 0.000000 
1.7851 366.517 1.813974 -0.159865 90.000000 0.000000 4.000000 89.476120 -0.009143 10000.000000 691.696503 2.000000 -0.541602 4.858398 -0.049433 28.835866 1.994567 14.457310 -0.004716 0.125813 -6104.858398 1930.791016 -0.528723 0.072742 0.492769 89.476105 2731.709961 0.023122 0.022557 0.001524 0.001199 0.000000 0.000000 0.000000 0.000000 0.000000 0.000000 0.000000 0.000000 0.000000 0.000000 0.000000 0.000000 0.000000 0.000000 0.000000 0.000000 0.000000 0.000000 0.000000 0.000000 0.000000 
1.8018 366.533 1.801886 -0.159811 90.000000 0.000000 4.000000 89.465001 -0.009338 10000.000000 690.272108 2.000000 -0.544043 4.855957 -0.049433 28.970655 1.999764 14.487205 -0.004579 0.121781 -6104.855957 1931.032227 -0.528708 0.073097 0.480663 89.464986 2727.768799 0.022975 0.022412 0.001520 0.001207 0.000000 0.000000 0.000000 0.000000 0.000000 0.000000 0.000000 0.000000 0.000000 0.000000 0.000000 0.000000 0.000000 0.000000 0.000000 0.000000 0.000000 0.000000 0.000000 0.000000 0.000000 
1.81847 366.55 1.790573 -0.159613 90.000000 0.000000 4.000000 89.453874 -0.009532 10000.000000 688.862030 2.000000 -0.545996 4.854004 -0.047863 29.105516 2.004968 14.516918 -0.004429 0.118044 -6104.854004 1931.273926 -0.528715 0.073302 0.469956 89.453859 2724.296387 0.022841 0.022282 0.001517 0.001215 0.000000 0.000000 0.000000 0.000000 0.000000 0.000000 0.000000 0.000000 0.000000 0.000000 0.000000 0.000000 0.000000 0.000000 0.000000 0.000000 0.000000 0.000000 0.000000 0.000000 0.000000 
1.83517 366.567 1.779975 -0.158993 90.000000 0.000000 4.000000 89.442762 -0.009726 10000.000000 687.465678 2.000000 -0.548438 4.851563 -0.047863 29.240448 2.010180 14.546460 -0.004259 0.114625 -6104.851563 1931.516113 -0.528743 0.073355 0.460643 89.442747 2721.264648 0.022721 0.022165 0.001513 0.001224 0.000000 0.000000 0.000000 0.000000 0.000000 0.000000 0.000000 0.000000 0.000000 0.000000 0.000000 0.000000 0.000000 0.000000 0.000000 0.000000 0.000000 0.000000 0.000000 0.000000 0.000000 
1.85183 366.583 1.770048 -0.158168 90.000000 0.000000 4.000000 89.431683 -0.009919 10000.000000 686.082338 2.000000 -0.550879 4.849121 -0.045664 29.375452 2.015398 14.575843 -0.004077 0.111542 -6104.849121 1931.758789 -0.528793 0.073256 0.452703 89.431668 2718.647217 0.022612 0.022061 0.001508 0.001232 0.000000 0.000000 0.000000 0.000000 0.000000 0.000000 0.000000 0.000000 0.000000 0.000000 0.000000 0.000000 0.000000 0.000000 0.000000 0.000000 0.000000 0.000000 0.000000 0.000000 0.000000 
1.86853 366.6 1.761306 -0.156778 90.000000 0.000000 4.000000 89.421356 -0.010099 10000.000000 684.796714 2.000000 -0.553320 4.846680 -0.045664 29.495390 2.019835 14.603253 -0.003883 0.108974 -6104.846680 1931.986816 -0.528859 0.073016 0.446480 89.421341 2716.547607 0.022521 0.021975 0.001503 0.001239 0.000000 0.000000 0.000000 0.000000 0.000000 0.000000 0.000000 0.000000 0.000000 0.000000 0.000000 0.000000 0.000000 0.000000 0.000000 0.000000 0.000000 0.000000 0.000000 0.000000 0.000000 
1.8852 366.617 1.751460 -0.154975 90.000000 0.000000 4.000000 89.409068 -0.010314 10000.000000 683.267862 2.000000 -0.556250 4.843750 -0.042995 29.660933 2.026636 14.635981 -0.003639 0.106332 -6104.843750 1932.260864 -0.528963 0.072544 0.440515 89.409053 2714.452637 0.022424 0.021886 0.001496 0.001246 0.000000 0.000000 0.000000 0.000000 0.000000 0.000000 0.000000 0.000000 0.000000 0.000000 0.000000 0.000000 0.000000 0.000000 0.000000 0.000000 0.000000 0.000000 0.000000 0.000000 0.000000 
1.9019 366.633 1.743513 -0.152830 90.000000 0.000000 4.000000 89.398946 -0.010490 10000.000000 682.005219 2.000000 -0.558691 4.841309 -0.042995 29.780892 2.031072 14.663117 -0.003415 0.104556 -6104.841309 1932.489746 -0.529068 0.072005 0.436716 89.398931 2713.041016 0.022363 0.021836 0.001489 0.001251 0.000000 0.000000 0.000000 0.000000 0.000000 0.000000 0.000000 0.000000 0.000000 0.000000 0.000000 0.000000 0.000000 0.000000 0.000000 0.000000 0.000000 0.000000 0.000000 0.000000 0.000000 
1.91857 366.65 1.735548 -0.150406 90.000000 0.000000 4.000000 89.388291 -0.010676 10000.000000 680.668974 2.000000 -0.561133 4.838867 -0.040482 29.916183 2.036302 14.691942 -0.003166 0.103080 -6104.838867 1932.734375 -0.529196 0.071291 0.433730 89.388276 2711.856201 0.022312 0.021796 0.001480 0.001255 0.000000 0.000000 0.000000 0.000000 0.000000 0.000000 0.000000 0.000000 0.000000 0.000000 0.000000 0.000000 0.000000 0.000000 0.000000 0.000000 0.000000 0.000000 0.000000 0.000000 0.000000 
1.93527 366.667 1.728277 -0.147597 90.000000 0.000000 4.000000 89.377820 -0.010859 10000.000000 679.343060 2.000000 -0.564063 4.835937 -0.040482 30.051545 2.041531 14.720654 -0.002909 0.102025 -6104.835938 1932.979492 -0.529338 0.070435 0.431729 89.377805 2710.986816 0.022271 0.021766 0.001470 0.001257 0.000000 0.000000 0.000000 0.000000 0.000000 0.000000 0.000000 0.000000 0.000000 0.000000 0.000000 0.000000 0.000000 0.000000 0.000000 0.000000 0.000000 0.000000 0.000000 0.000000 0.000000 
1.95193 366.683 1.721607 -0.144906 90.000000 0.000000 4.000000 89.367541 -0.011038 10000.000000 678.026949 2.000000 -0.566992 4.833008 -0.037656 30.186978 2.046758 14.749260 -0.002650 0.101364 -6104.833008 1933.225098 -0.529492 0.069455 0.430590 89.367526 2710.409668 0.022234 0.021739 0.001458 0.001258 0.000000 0.000000 0.000000 0.000000 0.000000 0.000000 0.000000 0.000000 0.000000 0.000000 0.000000 0.000000 0.000000 0.000000 0.000000 0.000000 0.000000 0.000000 0.000000 0.000000 0.000000 
1.96863 366.7 1.715444 -0.141805 90.000000 0.000000 4.000000 89.357493 -0.011214 10000.000000 676.720339 2.000000 -0.569434 4.830566 -0.035457 30.322483 2.051984 14.777768 -0.002390 0.101065 -6104.830566 1933.471191 -0.529653 0.068355 0.430191 89.357479 2710.098633 0.022200 0.021717 0.001445 0.001257 0.000000 0.000000 0.000000 0.000000 0.000000 0.000000 0.000000 0.000000 0.000000 0.000000 0.000000 0.000000 0.000000 0.000000 0.000000 0.000000 0.000000 0.000000 0.000000 0.000000 0.000000 
1.9853 366.717 1.709736 -0.138661 90.000000 0.000000 4.000000 89.347678 -0.011385 10000.000000 675.422714 2.000000 -0.572363 4.827637 -0.035457 30.457938 2.057198 14.806187 -0.002132 0.101090 -6104.827637 1933.717651 -0.529820 0.067149 0.430410 89.347664 2710.028320 0.022169 0.021698 0.001430 0.001254 0.000000 0.000000 0.000000 0.000000 0.000000 0.000000 0.000000 0.000000 0.000000 0.000000 0.000000 0.000000 0.000000 0.000000 0.000000 0.000000 0.000000 0.000000 0.000000 0.000000 0.000000 
2.002 366.733 1.704449 -0.135661 90.000000 0.000000 4.000000 89.338130 -0.011552 10000.000000 674.133783 2.000000 -0.575293 4.824707 -0.034515 30.593464 2.062409 14.834521 -0.001892 0.101398 -6104.824707 1933.964600 -0.529990 0.065851 0.431133 89.338115 2710.177734 0.022140 0.021681 0.001414 0.001250 0.000000 0.000000 0.000000 0.000000 0.000000 0.000000 0.000000 0.000000 0.000000 0.000000 0.000000 0.000000 0.000000 0.000000 0.000000 0.000000 0.000000 0.000000 0.000000 0.000000 0.000000 
