VidTime SimTime LonAccel LatAccel Throttle Brake Gear Heading HeadingError HeadwayDistance HeadwayTime Lane LaneOffset RoadOffset Steer TailwayDistance TailwayTime Velocity LatVelocity VertVelocity XPos YPos ZPos Roll Pitch Yaw EngineRPM SlipFR SlipFL SlipRR SlipRL User1 User2 User3 User4 User5 User6 User7 User8 User9 User10 User11 User12 User13 User14 User15 User16 User17 User18 User19 User20 User21 
0.0166666 417.817 2.737356 -0.048432 44.788361 0.000000 4.000000 89.507122 -0.008602 10000.000000 1026.790986 2.000000 -0.616797 4.783203 -0.026742 10000.000000 1026.790986 9.738510 -0.005527 0.138096 -6104.783203 1905.703247 -0.530181 0.021739 0.810532 89.507108 3010.120850 0.035937 0.035631 0.001475 0.001460 0.000000 0.000000 0.000000 0.000000 0.000000 0.000000 0.000000 0.000000 0.000000 0.000000 0.000000 0.000000 0.000000 0.000000 0.000000 0.000000 0.000000 0.000000 0.000000 0.000000 0.000000 
0.0333667 417.833 2.736084 -0.048615 44.788361 0.000000 4.000000 89.501843 -0.008694 10000.000000 1021.710132 2.000000 -0.618750 4.781250 -0.026585 10000.000000 1021.710132 9.786949 -0.005496 0.138552 -6104.781250 1905.876099 -0.530176 0.021830 0.809422 89.501828 3022.854004 0.035921 0.035614 0.001475 0.001459 0.000000 0.000000 0.000000 0.000000 0.000000 0.000000 0.000000 0.000000 0.000000 0.000000 0.000000 0.000000 0.000000 0.000000 0.000000 0.000000 0.000000 0.000000 0.000000 0.000000 0.000000 
0.0500333 417.85 2.735030 -0.048776 44.822540 0.000000 4.000000 89.497184 -0.008776 10000.000000 1017.270616 2.000000 -0.620215 4.779785 -0.026428 10000.000000 1017.270616 9.829671 -0.005468 0.138952 -6104.779785 1906.029419 -0.530172 0.021905 0.808486 89.497170 3034.062256 0.035903 0.035595 0.001475 0.001459 0.000000 0.000000 0.000000 0.000000 0.000000 0.000000 0.000000 0.000000 0.000000 0.000000 0.000000 0.000000 0.000000 0.000000 0.000000 0.000000 0.000000 0.000000 0.000000 0.000000 0.000000 
0.0667333 417.867 2.733757 -0.048949 44.822540 0.000000 4.000000 89.492219 -0.008862 10000.000000 1012.579801 2.000000 -0.621680 4.778320 -0.026428 10000.000000 1012.579801 9.875217 -0.005437 0.139376 -6104.778320 1906.193604 -0.530168 0.021981 0.807538 89.492204 3045.989502 0.035882 0.035573 0.001474 0.001459 0.000000 0.000000 0.000000 0.000000 0.000000 0.000000 0.000000 0.000000 0.000000 0.000000 0.000000 0.000000 0.000000 0.000000 0.000000 0.000000 0.000000 0.000000 0.000000 0.000000 0.000000 
0.0833999 417.883 2.732215 -0.049142 44.822540 0.000000 4.000000 89.486939 -0.008955 10000.000000 1007.646120 2.000000 -0.623145 4.776855 -0.026114 10000.000000 1007.646120 9.923581 -0.005403 0.139828 -6104.776855 1906.368896 -0.530166 0.022058 0.806588 89.486924 3058.635742 0.035858 0.035549 0.001474 0.001458 0.000000 0.000000 0.000000 0.000000 0.000000 0.000000 0.000000 0.000000 0.000000 0.000000 0.000000 0.000000 0.000000 0.000000 0.000000 0.000000 0.000000 0.000000 0.000000 0.000000 0.000000 
0.1001 417.9 2.730631 -0.049258 44.822540 0.000000 4.000000 89.481974 -0.009041 10000.000000 1003.049106 2.000000 -0.624609 4.775391 -0.026114 10000.000000 1003.049106 9.969071 -0.005368 0.140255 -6104.775391 1906.534668 -0.530164 0.022125 0.805750 89.481959 3070.519531 0.035835 0.035526 0.001473 0.001458 0.000000 0.000000 0.000000 0.000000 0.000000 0.000000 0.000000 0.000000 0.000000 0.000000 0.000000 0.000000 0.000000 0.000000 0.000000 0.000000 0.000000 0.000000 0.000000 0.000000 0.000000 
0.116767 417.917 2.728975 -0.049363 44.822540 0.000000 4.000000 89.477008 -0.009128 10000.000000 998.496698 2.000000 -0.626563 4.773438 -0.025800 10000.000000 998.496698 10.014534 -0.005332 0.140685 -6104.773438 1906.701172 -0.530164 0.022188 0.804966 89.476993 3082.386719 0.035813 0.035503 0.001472 0.001457 0.000000 0.000000 0.000000 0.000000 0.000000 0.000000 0.000000 0.000000 0.000000 0.000000 0.000000 0.000000 0.000000 0.000000 0.000000 0.000000 0.000000 0.000000 0.000000 0.000000 0.000000 
0.133467 417.933 2.727298 -0.049415 44.822540 0.000000 4.000000 89.472049 -0.009214 10000.000000 993.988347 2.000000 -0.628027 4.771973 -0.025800 10000.000000 993.988347 10.059967 -0.005292 0.141119 -6104.771973 1906.868530 -0.530165 0.022244 0.804236 89.472035 3094.234863 0.035791 0.035481 0.001472 0.001457 0.000000 0.000000 0.000000 0.000000 0.000000 0.000000 0.000000 0.000000 0.000000 0.000000 0.000000 0.000000 0.000000 0.000000 0.000000 0.000000 0.000000 0.000000 0.000000 0.000000 0.000000 
0.150133 417.95 2.725733 -0.049449 44.822540 0.000000 4.000000 89.467412 -0.009295 10000.000000 989.800928 2.000000 -0.629492 4.770508 -0.025329 10000.000000 989.800928 10.102536 -0.005253 0.141532 -6104.770508 1907.026001 -0.530167 0.022289 0.803600 89.467397 3105.323730 0.035771 0.035462 0.001471 0.001456 0.000000 0.000000 0.000000 0.000000 0.000000 0.000000 0.000000 0.000000 0.000000 0.000000 0.000000 0.000000 0.000000 0.000000 0.000000 0.000000 0.000000 0.000000 0.000000 0.000000 0.000000 
0.166833 417.967 2.724076 -0.049383 44.822540 0.000000 4.000000 89.462467 -0.009382 10000.000000 985.375679 2.000000 -0.631445 4.768555 -0.025329 10000.000000 985.375679 10.147917 -0.005207 0.141980 -6104.768555 1907.194824 -0.530171 0.022326 0.802972 89.462452 3117.130859 0.035751 0.035442 0.001471 0.001456 0.000000 0.000000 0.000000 0.000000 0.000000 0.000000 0.000000 0.000000 0.000000 0.000000 0.000000 0.000000 0.000000 0.000000 0.000000 0.000000 0.000000 0.000000 0.000000 0.000000 0.000000 
0.1835 417.983 2.722326 -0.049298 44.822540 0.000000 4.000000 89.457235 -0.009473 10000.000000 980.719893 2.000000 -0.632910 4.767090 -0.024858 10000.000000 980.719893 10.196103 -0.005154 0.142465 -6104.767090 1907.375000 -0.530176 0.022351 0.802359 89.457220 3129.652588 0.035730 0.035421 0.001470 0.001455 0.000000 0.000000 0.000000 0.000000 0.000000 0.000000 0.000000 0.000000 0.000000 0.000000 0.000000 0.000000 0.000000 0.000000 0.000000 0.000000 0.000000 0.000000 0.000000 0.000000 0.000000 
0.2002 418 2.720682 -0.049152 44.822540 0.000000 4.000000 89.452317 -0.009559 10000.000000 976.380748 2.000000 -0.634863 4.765137 -0.024858 10000.000000 976.380748 10.241426 -0.005100 0.142931 -6104.765137 1907.545288 -0.530182 0.022357 0.801832 89.452302 3141.416260 0.035710 0.035402 0.001470 0.001455 0.000000 0.000000 0.000000 0.000000 0.000000 0.000000 0.000000 0.000000 0.000000 0.000000 0.000000 0.000000 0.000000 0.000000 0.000000 0.000000 0.000000 0.000000 0.000000 0.000000 0.000000 
0.216867 418.017 2.719038 -0.049026 44.822540 0.000000 4.000000 89.447420 -0.009644 10000.000000 972.082354 2.000000 -0.636328 4.763672 -0.024387 10000.000000 972.082354 10.286722 -0.005043 0.143408 -6104.763672 1907.716309 -0.530189 0.022346 0.801352 89.447405 3153.159424 0.035690 0.035383 0.001469 0.001454 0.000000 0.000000 0.000000 0.000000 0.000000 0.000000 0.000000 0.000000 0.000000 0.000000 0.000000 0.000000 0.000000 0.000000 0.000000 0.000000 0.000000 0.000000 0.000000 0.000000 0.000000 
0.233567 418.033 2.717384 -0.048863 44.822540 0.000000 4.000000 89.442550 -0.009729 10000.000000 967.824320 2.000000 -0.638281 4.761719 -0.024387 10000.000000 967.824320 10.331990 -0.004984 0.143899 -6104.761719 1907.888184 -0.530198 0.022316 0.800913 89.442535 3164.882080 0.035672 0.035366 0.001469 0.001454 0.000000 0.000000 0.000000 0.000000 0.000000 0.000000 0.000000 0.000000 0.000000 0.000000 0.000000 0.000000 0.000000 0.000000 0.000000 0.000000 0.000000 0.000000 0.000000 0.000000 0.000000 
0.250233 418.05 2.715719 -0.048658 44.822540 0.000000 4.000000 89.437694 -0.009814 10000.000000 963.605906 2.000000 -0.640234 4.759766 -0.023758 10000.000000 963.605906 10.377231 -0.004919 0.144403 -6104.759766 1908.060791 -0.530207 0.022270 0.800512 89.437679 3176.585205 0.035654 0.035350 0.001468 0.001453 0.000000 0.000000 0.000000 0.000000 0.000000 0.000000 0.000000 0.000000 0.000000 0.000000 0.000000 0.000000 0.000000 0.000000 0.000000 0.000000 0.000000 0.000000 0.000000 0.000000 0.000000 
0.266933 418.067 2.714165 -0.048409 44.822540 0.000000 4.000000 89.433172 -0.009893 10000.000000 959.686655 2.000000 -0.641699 4.758301 -0.023758 10000.000000 959.686655 10.419619 -0.004857 0.144889 -6104.758301 1908.223267 -0.530217 0.022210 0.800164 89.433157 3187.540039 0.035637 0.035335 0.001467 0.001452 0.000000 0.000000 0.000000 0.000000 0.000000 0.000000 0.000000 0.000000 0.000000 0.000000 0.000000 0.000000 0.000000 0.000000 0.000000 0.000000 0.000000 0.000000 0.000000 0.000000 0.000000 
0.2836 418.083 2.712415 -0.048105 44.822540 0.000000 4.000000 89.428083 -0.009982 10000.000000 955.286016 2.000000 -0.643652 4.756348 -0.023130 10000.000000 955.286016 10.467628 -0.004781 0.145454 -6104.756348 1908.408203 -0.530228 0.022123 0.799798 89.428069 3199.934570 0.035618 0.035319 0.001467 0.001451 0.000000 0.000000 0.000000 0.000000 0.000000 0.000000 0.000000 0.000000 0.000000 0.000000 0.000000 0.000000 0.000000 0.000000 0.000000 0.000000 0.000000 0.000000 0.000000 0.000000 0.000000 
0.3003 418.1 2.710781 -0.047795 44.822540 0.000000 4.000000 89.423323 -0.010065 10000.000000 951.183382 2.000000 -0.645605 4.754395 -0.022659 10000.000000 951.183382 10.512787 -0.004708 0.145998 -6104.754395 1908.583008 -0.530240 0.022023 0.799474 89.423308 3211.578857 0.035600 0.035304 0.001466 0.001451 0.000000 0.000000 0.000000 0.000000 0.000000 0.000000 0.000000 0.000000 0.000000 0.000000 0.000000 0.000000 0.000000 0.000000 0.000000 0.000000 0.000000 0.000000 0.000000 0.000000 0.000000 
0.316967 418.117 2.709261 -0.047508 44.822540 0.000000 4.000000 89.418897 -0.010142 10000.000000 947.371179 2.000000 -0.647070 4.752930 -0.022659 10000.000000 947.371179 10.555099 -0.004637 0.146519 -6104.752930 1908.747681 -0.530251 0.021915 0.799184 89.418882 3222.475342 0.035583 0.035290 0.001465 0.001450 0.000000 0.000000 0.000000 0.000000 0.000000 0.000000 0.000000 0.000000 0.000000 0.000000 0.000000 0.000000 0.000000 0.000000 0.000000 0.000000 0.000000 0.000000 0.000000 0.000000 0.000000 
0.333667 418.133 2.707552 -0.047257 44.822540 0.000000 4.000000 89.413918 -0.010229 10000.000000 943.090057 2.000000 -0.649023 4.750977 -0.022188 10000.000000 943.090057 10.603023 -0.004558 0.147118 -6104.750977 1908.934937 -0.530264 0.021781 0.798867 89.413903 3234.801270 0.035564 0.035273 0.001464 0.001449 0.000000 0.000000 0.000000 0.000000 0.000000 0.000000 0.000000 0.000000 0.000000 0.000000 0.000000 0.000000 0.000000 0.000000 0.000000 0.000000 0.000000 0.000000 0.000000 0.000000 0.000000 
0.350333 418.15 2.705950 -0.047037 44.822540 0.000000 4.000000 89.409280 -0.010310 10000.000000 939.098355 2.000000 -0.650977 4.749023 -0.022188 10000.000000 939.098355 10.648101 -0.004483 0.147691 -6104.749023 1909.112061 -0.530276 0.021648 0.798573 89.409265 3246.379639 0.035546 0.035257 0.001464 0.001448 0.000000 0.000000 0.000000 0.000000 0.000000 0.000000 0.000000 0.000000 0.000000 0.000000 0.000000 0.000000 0.000000 0.000000 0.000000 0.000000 0.000000 0.000000 0.000000 0.000000 0.000000 
0.367033 418.167 2.704352 -0.046878 44.822540 0.000000 4.000000 89.404683 -0.010390 10000.000000 935.142554 2.000000 -0.652930 4.747070 -0.022031 10000.000000 935.142554 10.693152 -0.004412 0.148269 -6104.747070 1909.289917 -0.530288 0.021513 0.798281 89.404668 3257.936279 0.035528 0.035241 0.001463 0.001447 0.000000 0.000000 0.000000 0.000000 0.000000 0.000000 0.000000 0.000000 0.000000 0.000000 0.000000 0.000000 0.000000 0.000000 0.000000 0.000000 0.000000 0.000000 0.000000 0.000000 0.000000 
0.3837 418.183 2.702855 -0.046814 44.822540 0.000000 4.000000 89.400414 -0.010465 10000.000000 931.466284 2.000000 -0.654883 4.745117 -0.022031 10000.000000 931.466284 10.735364 -0.004349 0.148816 -6104.745117 1909.457397 -0.530300 0.021390 0.798005 89.400400 3268.750732 0.035511 0.035225 0.001462 0.001447 0.000000 0.000000 0.000000 0.000000 0.000000 0.000000 0.000000 0.000000 0.000000 0.000000 0.000000 0.000000 0.000000 0.000000 0.000000 0.000000 0.000000 0.000000 0.000000 0.000000 0.000000 
0.4004 418.2 2.701159 -0.046854 44.822540 0.000000 4.000000 89.395613 -0.010549 10000.000000 927.337065 2.000000 -0.656836 4.743164 -0.021874 10000.000000 927.337065 10.783175 -0.004283 0.149439 -6104.743164 1909.647827 -0.530312 0.021264 0.797686 89.395598 3280.984619 0.035491 0.035207 0.001461 0.001446 0.000000 0.000000 0.000000 0.000000 0.000000 0.000000 0.000000 0.000000 0.000000 0.000000 0.000000 0.000000 0.000000 0.000000 0.000000 0.000000 0.000000 0.000000 0.000000 0.000000 0.000000 
0.417067 418.217 2.699664 -0.046939 44.822540 0.000000 4.000000 89.391412 -0.010622 10000.000000 923.726104 2.000000 -0.658789 4.741211 -0.021874 10000.000000 923.726104 10.825337 -0.004231 0.149991 -6104.741211 1909.816650 -0.530323 0.021170 0.797396 89.391397 3291.759033 0.035474 0.035190 0.001460 0.001445 0.000000 0.000000 0.000000 0.000000 0.000000 0.000000 0.000000 0.000000 0.000000 0.000000 0.000000 0.000000 0.000000 0.000000 0.000000 0.000000 0.000000 0.000000 0.000000 0.000000 0.000000 
0.433767 418.233 2.697971 -0.047108 44.822540 0.000000 4.000000 89.386686 -0.010704 10000.000000 919.669915 2.000000 -0.660742 4.739258 -0.021874 10000.000000 919.669915 10.873092 -0.004178 0.150616 -6104.739258 1910.008789 -0.530335 0.021089 0.797056 89.386671 3303.947021 0.035455 0.035170 0.001458 0.001444 0.000000 0.000000 0.000000 0.000000 0.000000 0.000000 0.000000 0.000000 0.000000 0.000000 0.000000 0.000000 0.000000 0.000000 0.000000 0.000000 0.000000 0.000000 0.000000 0.000000 0.000000 
0.450433 418.25 2.696379 -0.047333 44.822540 0.000000 4.000000 89.382273 -0.010781 10000.000000 915.886967 2.000000 -0.662695 4.737305 -0.021874 10000.000000 915.886967 10.918011 -0.004135 0.151204 -6104.737305 1910.190430 -0.530345 0.021042 0.796722 89.382259 3315.396484 0.035437 0.035151 0.001457 0.001443 0.000000 0.000000 0.000000 0.000000 0.000000 0.000000 0.000000 0.000000 0.000000 0.000000 0.000000 0.000000 0.000000 0.000000 0.000000 0.000000 0.000000 0.000000 0.000000 0.000000 0.000000 
0.467133 418.267 2.694788 -0.047595 44.822540 0.000000 4.000000 89.377882 -0.010858 10000.000000 912.137235 2.000000 -0.665137 4.734863 -0.021874 10000.000000 912.137235 10.962903 -0.004098 0.151791 -6104.734863 1910.372803 -0.530355 0.021027 0.796374 89.377867 3326.824463 0.035419 0.035132 0.001456 0.001442 0.000000 0.000000 0.000000 0.000000 0.000000 0.000000 0.000000 0.000000 0.000000 0.000000 0.000000 0.000000 0.000000 0.000000 0.000000 0.000000 0.000000 0.000000 0.000000 0.000000 0.000000 
0.4838 418.283 2.693297 -0.047853 44.822540 0.000000 4.000000 89.373783 -0.010930 10000.000000 908.651643 2.000000 -0.667090 4.732910 -0.021874 10000.000000 908.651643 11.004966 -0.004068 0.152339 -6104.732910 1910.544434 -0.530365 0.021041 0.796033 89.373769 3337.519043 0.035402 0.035113 0.001455 0.001441 0.000000 0.000000 0.000000 0.000000 0.000000 0.000000 0.000000 0.000000 0.000000 0.000000 0.000000 0.000000 0.000000 0.000000 0.000000 0.000000 0.000000 0.000000 0.000000 0.000000 0.000000 
0.5005 418.3 2.691608 -0.048177 44.822540 0.000000 4.000000 89.369153 -0.011010 10000.000000 904.735769 2.000000 -0.669043 4.730957 -0.022031 10000.000000 904.735769 11.052608 -0.004040 0.152955 -6104.730957 1910.739746 -0.530374 0.021091 0.795629 89.369138 3349.617188 0.035382 0.035091 0.001454 0.001441 0.000000 0.000000 0.000000 0.000000 0.000000 0.000000 0.000000 0.000000 0.000000 0.000000 0.000000 0.000000 0.000000 0.000000 0.000000 0.000000 0.000000 0.000000 0.000000 0.000000 0.000000 
0.517167 418.317 2.690019 -0.048532 44.822540 0.000000 4.000000 89.364809 -0.011086 10000.000000 901.083112 2.000000 -0.670996 4.729004 -0.022031 10000.000000 901.083112 11.097421 -0.004018 0.153532 -6104.729004 1910.924316 -0.530383 0.021170 0.795230 89.364794 3360.982178 0.035364 0.035070 0.001453 0.001440 0.000000 0.000000 0.000000 0.000000 0.000000 0.000000 0.000000 0.000000 0.000000 0.000000 0.000000 0.000000 0.000000 0.000000 0.000000 0.000000 0.000000 0.000000 0.000000 0.000000 0.000000 
0.533867 418.333 2.688431 -0.048876 44.822540 0.000000 4.000000 89.360465 -0.011162 10000.000000 897.461980 2.000000 -0.673438 4.726563 -0.022031 10000.000000 897.461980 11.142207 -0.003999 0.154103 -6104.726563 1911.109619 -0.530391 0.021277 0.794815 89.360450 3372.326416 0.035346 0.035049 0.001452 0.001439 0.000000 0.000000 0.000000 0.000000 0.000000 0.000000 0.000000 0.000000 0.000000 0.000000 0.000000 0.000000 0.000000 0.000000 0.000000 0.000000 0.000000 0.000000 0.000000 0.000000 0.000000 
0.550533 418.35 2.686842 -0.049185 44.822540 0.000000 4.000000 89.356121 -0.011238 10000.000000 893.871969 2.000000 -0.675391 4.724609 -0.022031 10000.000000 893.871969 11.186967 -0.003981 0.154670 -6104.724609 1911.295776 -0.530399 0.021407 0.794382 89.356106 3383.649902 0.035328 0.035028 0.001451 0.001438 0.000000 0.000000 0.000000 0.000000 0.000000 0.000000 0.000000 0.000000 0.000000 0.000000 0.000000 0.000000 0.000000 0.000000 0.000000 0.000000 0.000000 0.000000 0.000000 0.000000 0.000000 
0.567233 418.367 2.685247 -0.049463 44.822540 0.000000 4.000000 89.351777 -0.011314 10000.000000 890.312682 2.000000 -0.677832 4.722168 -0.022031 10000.000000 890.312682 11.231701 -0.003963 0.155232 -6104.722168 1911.482544 -0.530406 0.021556 0.793931 89.351762 3394.953125 0.035309 0.035008 0.001450 0.001438 0.000000 0.000000 0.000000 0.000000 0.000000 0.000000 0.000000 0.000000 0.000000 0.000000 0.000000 0.000000 0.000000 0.000000 0.000000 0.000000 0.000000 0.000000 0.000000 0.000000 0.000000 
0.5839 418.383 2.683650 -0.049728 44.822540 0.000000 4.000000 89.347426 -0.011390 10000.000000 886.783728 2.000000 -0.679785 4.720215 -0.022188 10000.000000 886.783728 11.276407 -0.003945 0.155790 -6104.720215 1911.670166 -0.530413 0.021721 0.793463 89.347411 3406.227051 0.035291 0.034987 0.001450 0.001437 0.000000 0.000000 0.000000 0.000000 0.000000 0.000000 0.000000 0.000000 0.000000 0.000000 0.000000 0.000000 0.000000 0.000000 0.000000 0.000000 0.000000 0.000000 0.000000 0.000000 0.000000 
0.6006 418.4 2.682045 -0.050045 44.822540 0.000000 4.000000 89.343068 -0.011466 10000.000000 883.284796 2.000000 -0.682227 4.717773 -0.022188 10000.000000 883.284796 11.321087 -0.003928 0.156342 -6104.717773 1911.858398 -0.530419 0.021901 0.792978 89.343053 3417.432129 0.035271 0.034965 0.001449 0.001436 0.000000 0.000000 0.000000 0.000000 0.000000 0.000000 0.000000 0.000000 0.000000 0.000000 0.000000 0.000000 0.000000 0.000000 0.000000 0.000000 0.000000 0.000000 0.000000 0.000000 0.000000 
0.617267 418.417 2.680466 -0.050360 44.822540 0.000000 4.000000 89.338970 -0.011537 10000.000000 880.031637 2.000000 -0.684180 4.715820 -0.022188 10000.000000 880.031637 11.362947 -0.003912 0.156855 -6104.715820 1912.035645 -0.530424 0.022081 0.792506 89.338955 3427.889160 0.035249 0.034942 0.001448 0.001436 0.000000 0.000000 0.000000 0.000000 0.000000 0.000000 0.000000 0.000000 0.000000 0.000000 0.000000 0.000000 0.000000 0.000000 0.000000 0.000000 0.000000 0.000000 0.000000 0.000000 0.000000 
0.633967 418.433 2.678489 -0.050696 44.822540 0.000000 4.000000 89.334312 -0.011618 10000.000000 876.376296 2.000000 -0.686621 4.713379 -0.022188 10000.000000 876.376296 11.410354 -0.003892 0.157429 -6104.713379 1912.237305 -0.530430 0.022295 0.791951 89.334297 3439.709473 0.035221 0.034912 0.001447 0.001435 0.000000 0.000000 0.000000 0.000000 0.000000 0.000000 0.000000 0.000000 0.000000 0.000000 0.000000 0.000000 0.000000 0.000000 0.000000 0.000000 0.000000 0.000000 0.000000 0.000000 0.000000 
0.650633 418.45 2.676441 -0.051022 44.822540 0.000000 4.000000 89.329906 -0.011695 10000.000000 872.966556 2.000000 -0.689063 4.710938 -0.022345 10000.000000 872.966556 11.454933 -0.003873 0.157963 -6104.710938 1912.427856 -0.530434 0.022502 0.791406 89.329891 3450.817627 0.035194 0.034882 0.001447 0.001434 0.000000 0.000000 0.000000 0.000000 0.000000 0.000000 0.000000 0.000000 0.000000 0.000000 0.000000 0.000000 0.000000 0.000000 0.000000 0.000000 0.000000 0.000000 0.000000 0.000000 0.000000 
0.667333 418.467 2.674276 -0.051401 44.822540 0.000000 4.000000 89.325494 -0.011772 10000.000000 869.586058 2.000000 -0.691016 4.708984 -0.022345 10000.000000 869.586058 11.499475 -0.003854 0.158489 -6104.708984 1912.619141 -0.530439 0.022711 0.790837 89.325479 3461.911621 0.035167 0.034852 0.001446 0.001434 0.000000 0.000000 0.000000 0.000000 0.000000 0.000000 0.000000 0.000000 0.000000 0.000000 0.000000 0.000000 0.000000 0.000000 0.000000 0.000000 0.000000 0.000000 0.000000 0.000000 0.000000 
0.684 418.483 2.672209 -0.051780 44.822540 0.000000 4.000000 89.321334 -0.011845 10000.000000 866.443008 2.000000 -0.693457 4.706543 -0.022502 10000.000000 866.443008 11.541201 -0.003837 0.158976 -6104.706543 1912.799194 -0.530442 0.022908 0.790281 89.321320 3472.296387 0.035141 0.034824 0.001445 0.001433 0.000000 0.000000 0.000000 0.000000 0.000000 0.000000 0.000000 0.000000 0.000000 0.000000 0.000000 0.000000 0.000000 0.000000 0.000000 0.000000 0.000000 0.000000 0.000000 0.000000 0.000000 
0.7007 418.5 2.669878 -0.052259 44.822540 0.000000 4.000000 89.316601 -0.011928 10000.000000 862.911241 2.000000 -0.695898 4.704102 -0.022502 10000.000000 862.911241 11.588450 -0.003818 0.159518 -6104.704102 1913.003906 -0.530446 0.023132 0.789624 89.316586 3484.042725 0.035113 0.034792 0.001445 0.001432 0.000000 0.000000 0.000000 0.000000 0.000000 0.000000 0.000000 0.000000 0.000000 0.000000 0.000000 0.000000 0.000000 0.000000 0.000000 0.000000 0.000000 0.000000 0.000000 0.000000 0.000000 
0.717367 418.517 2.667712 -0.052737 44.822540 0.000000 4.000000 89.312134 -0.012006 10000.000000 859.616058 2.000000 -0.698340 4.701660 -0.022659 10000.000000 859.616058 11.632885 -0.003802 0.160021 -6104.701660 1913.197510 -0.530449 0.023344 0.788978 89.312119 3495.073486 0.035086 0.034763 0.001444 0.001432 0.000000 0.000000 0.000000 0.000000 0.000000 0.000000 0.000000 0.000000 0.000000 0.000000 0.000000 0.000000 0.000000 0.000000 0.000000 0.000000 0.000000 0.000000 0.000000 0.000000 0.000000 
0.734067 418.533 2.665700 -0.053207 44.788361 0.000000 4.000000 89.307920 -0.012079 10000.000000 856.552026 2.000000 -0.700293 4.699707 -0.022659 10000.000000 856.552026 11.674509 -0.003787 0.160484 -6104.699707 1913.379517 -0.530452 0.023544 0.788351 89.307905 3505.354004 0.035061 0.034735 0.001444 0.001431 0.000000 0.000000 0.000000 0.000000 0.000000 0.000000 0.000000 0.000000 0.000000 0.000000 0.000000 0.000000 0.000000 0.000000 0.000000 0.000000 0.000000 0.000000 0.000000 0.000000 0.000000 
0.750733 418.55 2.663382 -0.053703 44.788361 0.000000 4.000000 89.303118 -0.012163 10000.000000 853.108670 2.000000 -0.703223 4.696777 -0.022659 10000.000000 853.108670 11.721644 -0.003769 0.161000 -6104.696777 1913.586670 -0.530455 0.023772 0.787614 89.303103 3516.994141 0.035030 0.034701 0.001444 0.001431 0.000000 0.000000 0.000000 0.000000 0.000000 0.000000 0.000000 0.000000 0.000000 0.000000 0.000000 0.000000 0.000000 0.000000 0.000000 0.000000 0.000000 0.000000 0.000000 0.000000 0.000000 
0.767433 418.567 2.661129 -0.054117 44.788361 0.000000 4.000000 89.298583 -0.012242 10000.000000 849.895985 2.000000 -0.705664 4.694336 -0.022659 10000.000000 849.895985 11.765966 -0.003751 0.161477 -6104.694336 1913.782471 -0.530457 0.023986 0.786896 89.298568 3527.945068 0.035000 0.034669 0.001443 0.001430 0.000000 0.000000 0.000000 0.000000 0.000000 0.000000 0.000000 0.000000 0.000000 0.000000 0.000000 0.000000 0.000000 0.000000 0.000000 0.000000 0.000000 0.000000 0.000000 0.000000 0.000000 
0.7841 418.583 2.658592 -0.054491 44.788361 0.000000 4.000000 89.294027 -0.012322 10000.000000 846.710962 2.000000 -0.708105 4.691895 -0.022659 10000.000000 846.710962 11.810239 -0.003731 0.161945 -6104.691895 1913.978882 -0.530459 0.024196 0.786153 89.294012 3537.888428 0.034983 0.034651 0.001442 0.001429 0.000000 0.000000 0.000000 0.000000 0.000000 0.000000 0.000000 0.000000 0.000000 0.000000 0.000000 0.000000 0.000000 0.000000 0.000000 0.000000 0.000000 0.000000 0.000000 0.000000 0.000000 
0.8008 418.617 2.829473 -0.055182 44.754181 0.000000 4.000000 89.284854 -0.012482 10000.000000 839.920713 2.000000 -0.712988 4.687012 -0.022659 10000.000000 839.920713 11.905735 -0.003684 0.163671 -6104.687012 1914.374146 -0.530459 0.024608 0.786370 89.284840 3469.160889 0.041906 0.041502 0.001639 0.001628 0.000000 0.000000 0.000000 0.000000 0.000000 0.000000 0.000000 0.000000 0.000000 0.000000 0.000000 0.000000 0.000000 0.000000 0.000000 0.000000 0.000000 0.000000 0.000000 0.000000 0.000000 
0.817467 418.617 2.829473 -0.055182 44.754181 0.000000 4.000000 89.284854 -0.012482 10000.000000 839.920713 2.000000 -0.712988 4.687012 -0.022659 10000.000000 839.920713 11.905735 -0.003684 0.163671 -6104.687012 1914.374146 -0.530459 0.024608 0.786370 89.284840 3469.160889 0.041906 0.041502 0.001639 0.001628 0.000000 0.000000 0.000000 0.000000 0.000000 0.000000 0.000000 0.000000 0.000000 0.000000 0.000000 0.000000 0.000000 0.000000 0.000000 0.000000 0.000000 0.000000 0.000000 0.000000 0.000000 
0.834167 418.633 3.045953 -0.055433 44.754181 0.000000 4.000000 89.280237 -0.012562 10000.000000 836.151469 2.000000 -0.715430 4.684570 -0.022659 10000.000000 836.151469 11.959399 -0.003654 0.165607 -6104.684570 1914.572998 -0.530451 0.024822 0.789772 89.280222 3388.160645 0.043813 0.043365 0.001732 0.001727 0.000000 0.000000 0.000000 0.000000 0.000000 0.000000 0.000000 0.000000 0.000000 0.000000 0.000000 0.000000 0.000000 0.000000 0.000000 0.000000 0.000000 0.000000 0.000000 0.000000 0.000000 
0.850833 418.65 3.170561 -0.055681 44.754181 0.000000 4.000000 89.275606 -0.012643 10000.000000 832.413789 2.000000 -0.718359 4.681641 -0.022659 10000.000000 832.413789 12.013086 -0.003621 0.168157 -6104.681641 1914.772827 -0.530434 0.025025 0.795894 89.275591 3307.906738 0.042610 0.042154 0.001715 0.001719 0.000000 0.000000 0.000000 0.000000 0.000000 0.000000 0.000000 0.000000 0.000000 0.000000 0.000000 0.000000 0.000000 0.000000 0.000000 0.000000 0.000000 0.000000 0.000000 0.000000 0.000000 
0.867533 418.667 3.146538 -0.056037 44.651634 0.000000 4.000000 89.270962 -0.012724 10000.000000 828.873602 2.000000 -0.720801 4.679199 -0.022659 10000.000000 828.873602 12.064378 -0.003590 0.170965 -6104.679199 1914.973389 -0.530409 0.025214 0.803821 89.270947 3239.591309 0.040160 0.039727 0.001631 0.001646 0.000000 0.000000 0.000000 0.000000 0.000000 0.000000 0.000000 0.000000 0.000000 0.000000 0.000000 0.000000 0.000000 0.000000 0.000000 0.000000 0.000000 0.000000 0.000000 0.000000 0.000000 
0.8842 418.683 3.028762 -0.056468 44.651634 0.000000 4.000000 89.266317 -0.012805 10000.000000 825.553667 2.000000 -0.723242 4.676758 -0.022659 10000.000000 825.553667 12.112877 -0.003560 0.173720 -6104.676758 1915.174927 -0.530378 0.025388 0.812398 89.266302 3181.957275 0.037972 0.037567 0.001540 0.001565 0.000000 0.000000 0.000000 0.000000 0.000000 0.000000 0.000000 0.000000 0.000000 0.000000 0.000000 0.000000 0.000000 0.000000 0.000000 0.000000 0.000000 0.000000 0.000000 0.000000 0.000000 
0.9009 418.7 2.892575 -0.056904 44.651634 0.000000 4.000000 89.261659 -0.012886 10000.000000 822.405970 2.000000 -0.726172 4.673828 -0.022502 10000.000000 822.405970 12.159225 -0.003531 0.176220 -6104.673828 1915.377197 -0.530345 0.025550 0.820695 89.261644 3130.049561 0.036457 0.036074 0.001472 0.001505 0.000000 0.000000 0.000000 0.000000 0.000000 0.000000 0.000000 0.000000 0.000000 0.000000 0.000000 0.000000 0.000000 0.000000 0.000000 0.000000 0.000000 0.000000 0.000000 0.000000 0.000000 
0.917567 418.717 2.778730 -0.057255 44.617455 0.000000 4.000000 89.256994 -0.012968 10000.000000 819.380840 2.000000 -0.728613 4.671387 -0.022345 10000.000000 819.380840 12.204107 -0.003503 0.178347 -6104.671387 1915.580200 -0.530311 0.025700 0.828085 89.256979 3080.260498 0.035396 0.035027 0.001426 0.001464 0.000000 0.000000 0.000000 0.000000 0.000000 0.000000 0.000000 0.000000 0.000000 0.000000 0.000000 0.000000 0.000000 0.000000 0.000000 0.000000 0.000000 0.000000 0.000000 0.000000 0.000000 
0.934267 418.733 2.691112 -0.057513 44.617455 0.000000 4.000000 89.252336 -0.013049 10000.000000 816.454353 2.000000 -0.731543 4.668457 -0.022345 10000.000000 816.454353 12.247849 -0.003473 0.180022 -6104.668457 1915.784058 -0.530281 0.025836 0.834136 89.252321 3031.820313 0.034461 0.034104 0.001391 0.001430 0.000000 0.000000 0.000000 0.000000 0.000000 0.000000 0.000000 0.000000 0.000000 0.000000 0.000000 0.000000 0.000000 0.000000 0.000000 0.000000 0.000000 0.000000 0.000000 0.000000 0.000000 
0.950933 418.75 2.617331 -0.057696 44.617455 0.000000 4.000000 89.247664 -0.013131 10000.000000 813.622933 2.000000 -0.733984 4.666016 -0.021874 10000.000000 813.622933 12.290477 -0.003441 0.181176 -6104.666016 1915.988525 -0.530255 0.025956 0.838495 89.247649 2985.664795 0.033491 0.033145 0.001358 0.001394 0.000000 0.000000 0.000000 0.000000 0.000000 0.000000 0.000000 0.000000 0.000000 0.000000 0.000000 0.000000 0.000000 0.000000 0.000000 0.000000 0.000000 0.000000 0.000000 0.000000 0.000000 
0.967633 418.767 2.546685 -0.057723 44.480736 0.000000 4.000000 89.242999 -0.013212 10000.000000 810.888708 2.000000 -0.736914 4.663086 -0.021874 10000.000000 810.888708 12.331932 -0.003404 0.181745 -6104.663086 1916.193726 -0.530238 0.026056 0.840837 89.242984 2942.880371 0.032459 0.032127 0.001326 0.001355 0.000000 0.000000 0.000000 0.000000 0.000000 0.000000 0.000000 0.000000 0.000000 0.000000 0.000000 0.000000 0.000000 0.000000 0.000000 0.000000 0.000000 0.000000 0.000000 0.000000 0.000000 
0.9843 418.783 2.473356 -0.057605 44.480736 0.000000 4.000000 89.238341 -0.013293 10000.000000 808.256772 2.000000 -0.739844 4.660156 -0.021246 10000.000000 808.256772 12.372111 -0.003361 0.181680 -6104.660156 1916.399536 -0.530231 0.026128 0.840863 89.238326 2904.758057 0.031344 0.031026 0.001291 0.001310 0.000000 0.000000 0.000000 0.000000 0.000000 0.000000 0.000000 0.000000 0.000000 0.000000 0.000000 0.000000 0.000000 0.000000 0.000000 0.000000 0.000000 0.000000 0.000000 0.000000 0.000000 
1.001 418.8 2.396813 -0.057316 44.480736 0.000000 4.000000 89.233683 -0.013375 10000.000000 805.726429 2.000000 -0.742285 4.657715 -0.021246 10000.000000 805.726429 12.410995 -0.003308 0.181110 -6104.657715 1916.606079 -0.530235 0.026163 0.838376 89.233668 2871.710205 0.030272 0.029969 0.001257 0.001263 0.000000 0.000000 0.000000 0.000000 0.000000 0.000000 0.000000 0.000000 0.000000 0.000000 0.000000 0.000000 0.000000 0.000000 0.000000 0.000000 0.000000 0.000000 0.000000 0.000000 0.000000 
1.01767 418.817 2.321505 -0.056908 44.446556 0.000000 4.000000 89.229045 -0.013456 10000.000000 803.289410 2.000000 -0.745215 4.654785 -0.019990 10000.000000 803.289410 12.448682 -0.003247 0.180135 -6104.654785 1916.813232 -0.530247 0.026157 0.833329 89.229030 2842.857178 0.029354 0.029066 0.001234 0.001226 0.000000 0.000000 0.000000 0.000000 0.000000 0.000000 0.000000 0.000000 0.000000 0.000000 0.000000 0.000000 0.000000 0.000000 0.000000 0.000000 0.000000 0.000000 0.000000 0.000000 0.000000 
1.03437 418.833 2.253336 -0.056127 44.446556 0.000000 4.000000 89.224421 -0.013536 10000.000000 800.931320 2.000000 -0.748145 4.651855 -0.019990 10000.000000 800.931320 12.485373 -0.003168 0.178806 -6104.651855 1917.020996 -0.530265 0.026097 0.825777 89.224406 2816.944092 0.028617 0.028342 0.001220 0.001195 0.000000 0.000000 0.000000 0.000000 0.000000 0.000000 0.000000 0.000000 0.000000 0.000000 0.000000 0.000000 0.000000 0.000000 0.000000 0.000000 0.000000 0.000000 0.000000 0.000000 0.000000 
1.05103 418.85 2.196136 -0.055125 44.446556 0.000000 4.000000 89.219824 -0.013617 10000.000000 798.637274 2.000000 -0.751074 4.648926 -0.017948 10000.000000 798.637274 12.521279 -0.003073 0.177178 -6104.648926 1917.229492 -0.530284 0.025967 0.815886 89.219809 2792.974121 0.028016 0.027753 0.001213 0.001170 0.000000 0.000000 0.000000 0.000000 0.000000 0.000000 0.000000 0.000000 0.000000 0.000000 0.000000 0.000000 0.000000 0.000000 0.000000 0.000000 0.000000 0.000000 0.000000 0.000000 0.000000 
1.06773 418.867 2.149175 -0.053506 44.309834 0.000000 4.000000 89.215275 -0.013696 10000.000000 796.397703 2.000000 -0.754004 4.645996 -0.017948 10000.000000 796.397703 12.556537 -0.002950 0.175290 -6104.645996 1917.438477 -0.530301 0.025745 0.803895 89.215260 2770.240234 0.027492 0.027241 0.001211 0.001149 0.000000 0.000000 0.000000 0.000000 0.000000 0.000000 0.000000 0.000000 0.000000 0.000000 0.000000 0.000000 0.000000 0.000000 0.000000 0.000000 0.000000 0.000000 0.000000 0.000000 0.000000 
1.0844 418.883 2.109505 -0.051693 44.309834 0.000000 4.000000 89.210788 -0.013774 10000.000000 794.206928 2.000000 -0.756934 4.643066 -0.014808 10000.000000 794.206928 12.591221 -0.002804 0.173167 -6104.643066 1917.647949 -0.530313 0.025412 0.790070 89.210773 2748.362061 0.027003 0.026766 0.001211 0.001130 0.000000 0.000000 0.000000 0.000000 0.000000 0.000000 0.000000 0.000000 0.000000 0.000000 0.000000 0.000000 0.000000 0.000000 0.000000 0.000000 0.000000 0.000000 0.000000 0.000000 0.000000 
1.1011 418.9 2.074094 -0.049010 44.309834 0.000000 4.000000 89.206389 -0.013851 10000.000000 792.062336 2.000000 -0.759863 4.640137 -0.014808 10000.000000 792.062336 12.625361 -0.002619 0.170824 -6104.640137 1917.858154 -0.530316 0.024936 0.774676 89.206374 2727.554688 0.026527 0.026306 0.001211 0.001112 0.000000 0.000000 0.000000 0.000000 0.000000 0.000000 0.000000 0.000000 0.000000 0.000000 0.000000 0.000000 0.000000 0.000000 0.000000 0.000000 0.000000 0.000000 0.000000 0.000000 0.000000 
1.11777 418.917 2.040826 -0.046132 44.275654 0.000000 4.000000 89.202113 -0.013926 10000.000000 789.962619 2.000000 -0.762793 4.637207 -0.010882 10000.000000 789.962619 12.658971 -0.002407 0.168270 -6104.637207 1918.068848 -0.530309 0.024294 0.757970 89.202099 2707.970459 0.026058 0.025853 0.001211 0.001095 0.000000 0.000000 0.000000 0.000000 0.000000 0.000000 0.000000 0.000000 0.000000 0.000000 0.000000 0.000000 0.000000 0.000000 0.000000 0.000000 0.000000 0.000000 0.000000 0.000000 0.000000 
1.13447 418.933 2.008744 -0.042327 44.275654 0.000000 4.000000 89.197981 -0.013998 10000.000000 787.906212 2.000000 -0.765723 4.634277 -0.010882 10000.000000 787.906212 12.692061 -0.002151 0.165511 -6104.634277 1918.280029 -0.530289 0.023450 0.740188 89.197966 2689.692627 0.025600 0.025415 0.001210 0.001078 0.000000 0.000000 0.000000 0.000000 0.000000 0.000000 0.000000 0.000000 0.000000 0.000000 0.000000 0.000000 0.000000 0.000000 0.000000 0.000000 0.000000 0.000000 0.000000 0.000000 0.000000 
1.15113 418.95 1.977703 -0.038276 44.241474 0.000000 4.000000 89.194040 -0.014067 10000.000000 785.891405 2.000000 -0.768652 4.631348 -0.006642 10000.000000 785.891405 12.724652 -0.001862 0.162555 -6104.631348 1918.491943 -0.530257 0.022385 0.721554 89.194025 2672.785645 0.025160 0.024994 0.001207 0.001063 0.000000 0.000000 0.000000 0.000000 0.000000 0.000000 0.000000 0.000000 0.000000 0.000000 0.000000 0.000000 0.000000 0.000000 0.000000 0.000000 0.000000 0.000000 0.000000 0.000000 0.000000 
1.16783 418.967 1.947958 -0.033534 44.241474 0.000000 4.000000 89.190331 -0.014131 10000.000000 783.916119 2.000000 -0.772070 4.627930 -0.006642 10000.000000 783.916119 12.756767 -0.001539 0.159411 -6104.627930 1918.704224 -0.530213 0.021069 0.702276 89.190317 2657.170898 0.024742 0.024598 0.001202 0.001048 0.000000 0.000000 0.000000 0.000000 0.000000 0.000000 0.000000 0.000000 0.000000 0.000000 0.000000 0.000000 0.000000 0.000000 0.000000 0.000000 0.000000 0.000000 0.000000 0.000000 0.000000 
1.1845 418.983 1.919829 -0.028769 44.241474 0.000000 4.000000 89.186889 -0.014191 10000.000000 781.977912 2.000000 -0.775000 4.625000 -0.002088 10000.000000 781.977912 12.788439 -0.001189 0.156092 -6104.625000 1918.917114 -0.530156 0.019501 0.682553 89.186874 2642.787354 0.024350 0.024228 0.001196 0.001034 0.000000 0.000000 0.000000 0.000000 0.000000 0.000000 0.000000 0.000000 0.000000 0.000000 0.000000 0.000000 0.000000 0.000000 0.000000 0.000000 0.000000 0.000000 0.000000 0.000000 0.000000 
1.2012 419 1.893522 -0.023581 44.241474 0.000000 4.000000 89.183754 -0.014246 10000.000000 780.074336 2.000000 -0.777930 4.622070 0.002152 10000.000000 780.074336 12.819696 -0.000820 0.152613 -6104.622070 1919.130493 -0.530089 0.017671 0.662573 89.183739 2629.520996 0.023985 0.023885 0.001187 0.001022 0.000000 0.000000 0.000000 0.000000 0.000000 0.000000 0.000000 0.000000 0.000000 0.000000 0.000000 0.000000 0.000000 0.000000 0.000000 0.000000 0.000000 0.000000 0.000000 0.000000 0.000000 
1.21787 419.017 1.869085 -0.018309 44.070560 0.000000 4.000000 89.180967 -0.014295 10000.000000 778.203163 2.000000 -0.780859 4.619141 0.002152 10000.000000 778.203163 12.850572 -0.000431 0.148991 -6104.619141 1919.344360 -0.530012 0.015595 0.642515 89.180952 2617.254150 0.023643 0.023567 0.001176 0.001010 0.000000 0.000000 0.000000 0.000000 0.000000 0.000000 0.000000 0.000000 0.000000 0.000000 0.000000 0.000000 0.000000 0.000000 0.000000 0.000000 0.000000 0.000000 0.000000 0.000000 0.000000 
1.23457 419.033 1.846402 -0.013148 44.070560 0.000000 4.000000 89.178549 -0.014337 10000.000000 776.362328 2.000000 -0.784277 4.615723 0.006392 10000.000000 776.362328 12.881091 -0.000049 0.145249 -6104.615723 1919.558838 -0.529927 0.013293 0.622548 89.178535 2605.763184 0.023322 0.023269 0.001162 0.001000 0.000000 0.000000 0.000000 0.000000 0.000000 0.000000 0.000000 0.000000 0.000000 0.000000 0.000000 0.000000 0.000000 0.000000 0.000000 0.000000 0.000000 0.000000 0.000000 0.000000 0.000000 
1.25123 419.05 1.825182 -0.008027 44.070560 0.000000 4.000000 89.176534 -0.014372 10000.000000 774.550321 2.000000 -0.787207 4.612793 0.006392 10000.000000 774.550321 12.911273 0.000337 0.141406 -6104.612793 1919.773804 -0.529836 0.010806 0.602828 89.176520 2595.191162 0.023018 0.022988 0.001146 0.000990 0.000000 0.000000 0.000000 0.000000 0.000000 0.000000 0.000000 0.000000 0.000000 0.000000 0.000000 0.000000 0.000000 0.000000 0.000000 0.000000 0.000000 0.000000 0.000000 0.000000 0.000000 
1.26793 419.067 1.805195 -0.002994 43.968021 0.000000 4.000000 89.174943 -0.014400 10000.000000 772.765716 2.000000 -0.790137 4.609863 0.010475 10000.000000 772.765716 12.941135 0.000706 0.137489 -6104.609863 1919.989136 -0.529742 0.008168 0.583498 89.174928 2585.494141 0.022732 0.022725 0.001128 0.000981 0.000000 0.000000 0.000000 0.000000 0.000000 0.000000 0.000000 0.000000 0.000000 0.000000 0.000000 0.000000 0.000000 0.000000 0.000000 0.000000 0.000000 0.000000 0.000000 0.000000 0.000000 
1.2846 419.083 1.786376 0.002357 43.968021 0.000000 4.000000 89.173796 -0.014420 10000.000000 771.007003 2.000000 -0.793555 4.606445 0.010475 10000.000000 771.007003 12.970698 0.001074 0.133521 -6104.606445 1920.205078 -0.529647 0.005419 0.564690 89.173781 2576.531982 0.022464 0.022480 0.001107 0.000972 0.000000 0.000000 0.000000 0.000000 0.000000 0.000000 0.000000 0.000000 0.000000 0.000000 0.000000 0.000000 0.000000 0.000000 0.000000 0.000000 0.000000 0.000000 0.000000 0.000000 0.000000 
1.3013 419.1 1.768657 0.007485 43.968021 0.000000 4.000000 89.173099 -0.014432 10000.000000 769.272869 2.000000 -0.796484 4.603516 0.015186 10000.000000 769.272869 12.999978 0.001419 0.129531 -6104.603516 1920.421509 -0.529554 0.002596 0.546524 89.173084 2568.365234 0.022213 0.022250 0.001086 0.000965 0.000000 0.000000 0.000000 0.000000 0.000000 0.000000 0.000000 0.000000 0.000000 0.000000 0.000000 0.000000 0.000000 0.000000 0.000000 0.000000 0.000000 0.000000 0.000000 0.000000 0.000000 
1.31797 419.117 1.751997 0.013322 43.865475 0.000000 4.000000 89.172887 -0.014436 10000.000000 767.562025 2.000000 -0.799414 4.600586 0.015186 10000.000000 767.562025 13.028992 0.001769 0.125548 -6104.600586 1920.638428 -0.529464 -0.000277 0.529106 89.172872 2560.933105 0.021979 0.022039 0.001064 0.000958 0.000000 0.000000 0.000000 0.000000 0.000000 0.000000 0.000000 0.000000 0.000000 0.000000 0.000000 0.000000 0.000000 0.000000 0.000000 0.000000 0.000000 0.000000 0.000000 0.000000 0.000000 
1.33467 419.133 1.736382 0.019141 43.865475 0.000000 4.000000 89.173153 -0.014431 10000.000000 765.873150 2.000000 -0.802832 4.597168 0.019426 10000.000000 765.873150 13.057756 0.002104 0.121599 -6104.597168 1920.855835 -0.529380 -0.003181 0.512530 89.173139 2554.090820 0.021763 0.021844 0.001043 0.000952 0.000000 0.000000 0.000000 0.000000 0.000000 0.000000 0.000000 0.000000 0.000000 0.000000 0.000000 0.000000 0.000000 0.000000 0.000000 0.000000 0.000000 0.000000 0.000000 0.000000 0.000000 
1.35133 419.15 1.721730 0.025463 43.865475 0.000000 4.000000 89.173912 -0.014418 10000.000000 764.205225 2.000000 -0.805762 4.594238 0.019426 10000.000000 764.205225 13.086287 0.002436 0.117714 -6104.594238 1921.073608 -0.529305 -0.006109 0.496879 89.173897 2547.904785 0.021560 0.021663 0.001022 0.000948 0.000000 0.000000 0.000000 0.000000 0.000000 0.000000 0.000000 0.000000 0.000000 0.000000 0.000000 0.000000 0.000000 0.000000 0.000000 0.000000 0.000000 0.000000 0.000000 0.000000 0.000000 
1.36803 419.167 1.707958 0.031335 43.762936 0.000000 4.000000 89.175175 -0.014396 10000.000000 762.557137 2.000000 -0.808691 4.591309 0.023508 10000.000000 762.557137 13.114596 0.002747 0.113922 -6104.591309 1921.291992 -0.529240 -0.009038 0.482224 89.175160 2542.319336 0.021375 0.021497 0.001001 0.000944 0.000000 0.000000 0.000000 0.000000 0.000000 0.000000 0.000000 0.000000 0.000000 0.000000 0.000000 0.000000 0.000000 0.000000 0.000000 0.000000 0.000000 0.000000 0.000000 0.000000 0.000000 
1.3847 419.183 1.695033 0.037518 43.762936 0.000000 4.000000 89.176944 -0.014365 10000.000000 760.927903 2.000000 -0.812109 4.587891 0.023508 10000.000000 760.927903 13.142699 0.003048 0.110251 -6104.587891 1921.510742 -0.529188 -0.011962 0.468620 89.176929 2537.217285 0.021202 0.021345 0.000983 0.000941 0.000000 0.000000 0.000000 0.000000 0.000000 0.000000 0.000000 0.000000 0.000000 0.000000 0.000000 0.000000 0.000000 0.000000 0.000000 0.000000 0.000000 0.000000 0.000000 0.000000 0.000000 
1.4014 419.2 1.682868 0.043376 43.762936 0.000000 4.000000 89.179212 -0.014325 10000.000000 759.316669 2.000000 -0.815039 4.584961 0.026806 10000.000000 759.316669 13.170607 0.003328 0.106730 -6104.584961 1921.729980 -0.529149 -0.014861 0.456112 89.179197 2532.668945 0.021043 0.021206 0.000967 0.000940 0.000000 0.000000 0.000000 0.000000 0.000000 0.000000 0.000000 0.000000 0.000000 0.000000 0.000000 0.000000 0.000000 0.000000 0.000000 0.000000 0.000000 0.000000 0.000000 0.000000 0.000000 
1.41807 419.217 1.671401 0.049141 43.762936 0.000000 4.000000 89.181978 -0.014277 10000.000000 757.722701 2.000000 -0.817969 4.582031 0.029319 10000.000000 757.722701 13.198329 0.003583 0.103382 -6104.582031 1921.949707 -0.529125 -0.017726 0.444732 89.181963 2528.638916 0.020897 0.021078 0.000952 0.000940 0.000000 0.000000 0.000000 0.000000 0.000000 0.000000 0.000000 0.000000 0.000000 0.000000 0.000000 0.000000 0.000000 0.000000 0.000000 0.000000 0.000000 0.000000 0.000000 0.000000 0.000000 
1.43477 419.233 1.660637 0.054383 43.762936 0.000000 4.000000 89.185243 -0.014220 10000.000000 756.145009 2.000000 -0.821387 4.578613 0.029319 10000.000000 756.145009 13.225880 0.003808 0.100233 -6104.578613 1922.169922 -0.529118 -0.020527 0.434499 89.185228 2525.083008 0.020765 0.020964 0.000940 0.000941 0.000000 0.000000 0.000000 0.000000 0.000000 0.000000 0.000000 0.000000 0.000000 0.000000 0.000000 0.000000 0.000000 0.000000 0.000000 0.000000 0.000000 0.000000 0.000000 0.000000 0.000000 
1.45143 419.25 1.650588 0.059237 43.762936 0.000000 4.000000 89.188979 -0.014155 10000.000000 754.582778 2.000000 -0.824316 4.575684 0.030732 10000.000000 754.582778 13.253270 0.003993 0.097304 -6104.575684 1922.390625 -0.529128 -0.023242 0.425421 89.188964 2521.958496 0.020647 0.020863 0.000931 0.000944 0.000000 0.000000 0.000000 0.000000 0.000000 0.000000 0.000000 0.000000 0.000000 0.000000 0.000000 0.000000 0.000000 0.000000 0.000000 0.000000 0.000000 0.000000 0.000000 0.000000 0.000000 
1.46813 419.267 1.641346 0.063435 43.762936 0.000000 4.000000 89.193166 -0.014082 10000.000000 753.035046 2.000000 -0.827246 4.572754 0.030732 10000.000000 753.035046 13.280516 0.004135 0.094615 -6104.572754 1922.611694 -0.529155 -0.025836 0.417494 89.193151 2519.231445 0.020544 0.020774 0.000924 0.000949 0.000000 0.000000 0.000000 0.000000 0.000000 0.000000 0.000000 0.000000 0.000000 0.000000 0.000000 0.000000 0.000000 0.000000 0.000000 0.000000 0.000000 0.000000 0.000000 0.000000 0.000000 
1.4848 419.283 1.632822 0.067097 43.728756 0.000000 4.000000 89.197783 -0.014001 10000.000000 751.501084 2.000000 -0.830176 4.569824 0.031046 10000.000000 751.501084 13.307627 0.004229 0.092183 -6104.569824 1922.833252 -0.529200 -0.028275 0.410704 89.197768 2516.871094 0.020450 0.020693 0.000919 0.000955 0.000000 0.000000 0.000000 0.000000 0.000000 0.000000 0.000000 0.000000 0.000000 0.000000 0.000000 0.000000 0.000000 0.000000 0.000000 0.000000 0.000000 0.000000 0.000000 0.000000 0.000000 
1.5015 419.3 1.624844 0.070098 43.728756 0.000000 4.000000 89.202796 -0.013914 10000.000000 749.980438 2.000000 -0.833594 4.566406 0.031046 10000.000000 749.980438 13.334609 0.004270 0.090022 -6104.566406 1923.055298 -0.529262 -0.030521 0.405027 89.202782 2514.832764 0.020365 0.020620 0.000917 0.000962 0.000000 0.000000 0.000000 0.000000 0.000000 0.000000 0.000000 0.000000 0.000000 0.000000 0.000000 0.000000 0.000000 0.000000 0.000000 0.000000 0.000000 0.000000 0.000000 0.000000 0.000000 
1.51817 419.317 1.617200 0.072438 43.728756 0.000000 4.000000 89.208165 -0.013820 10000.000000 748.472880 2.000000 -0.836523 4.563477 0.030889 10000.000000 748.472880 13.361465 0.004256 0.088166 -6104.563477 1923.277710 -0.529341 -0.032515 0.400418 89.208150 2513.135742 0.020289 0.020558 0.000916 0.000971 0.000000 0.000000 0.000000 0.000000 0.000000 0.000000 0.000000 0.000000 0.000000 0.000000 0.000000 0.000000 0.000000 0.000000 0.000000 0.000000 0.000000 0.000000 0.000000 0.000000 0.000000 
1.53487 419.333 1.609849 0.074357 43.728756 0.000000 4.000000 89.213841 -0.013721 10000.000000 746.977862 2.000000 -0.839453 4.560547 0.030889 10000.000000 746.977862 13.388201 0.004196 0.086634 -6104.560547 1923.500610 -0.529435 -0.034176 0.396812 89.213826 2511.764648 0.020223 0.020511 0.000918 0.000981 0.000000 0.000000 0.000000 0.000000 0.000000 0.000000 0.000000 0.000000 0.000000 0.000000 0.000000 0.000000 0.000000 0.000000 0.000000 0.000000 0.000000 0.000000 0.000000 0.000000 0.000000 
1.55153 419.35 1.602837 0.076184 43.728756 0.000000 4.000000 89.219790 -0.013617 10000.000000 745.494900 2.000000 -0.842383 4.557617 0.030575 10000.000000 745.494900 13.414824 0.004101 0.085441 -6104.557617 1923.723999 -0.529543 -0.035503 0.394120 89.219775 2510.700439 0.020176 0.020469 0.000922 0.000992 0.000000 0.000000 0.000000 0.000000 0.000000 0.000000 0.000000 0.000000 0.000000 0.000000 0.000000 0.000000 0.000000 0.000000 0.000000 0.000000 0.000000 0.000000 0.000000 0.000000 0.000000 
1.56823 419.367 1.596308 0.077842 43.728756 0.000000 4.000000 89.225964 -0.013509 10000.000000 744.023410 2.000000 -0.845312 4.554688 0.030575 10000.000000 744.023410 13.441345 0.003976 0.084576 -6104.554688 1923.947754 -0.529662 -0.036519 0.392245 89.225950 2509.920898 0.020139 0.020431 0.000927 0.001003 0.000000 0.000000 0.000000 0.000000 0.000000 0.000000 0.000000 0.000000 0.000000 0.000000 0.000000 0.000000 0.000000 0.000000 0.000000 0.000000 0.000000 0.000000 0.000000 0.000000 0.000000 
1.5849 419.383 1.590253 0.079510 43.762936 0.000000 4.000000 89.232317 -0.013399 10000.000000 742.562923 2.000000 -0.848242 4.551758 0.030418 10000.000000 742.562923 13.467770 0.003836 0.084019 -6104.551758 1924.171997 -0.529791 -0.037269 0.391087 89.232302 2509.406494 0.020107 0.020397 0.000933 0.001015 0.000000 0.000000 0.000000 0.000000 0.000000 0.000000 0.000000 0.000000 0.000000 0.000000 0.000000 0.000000 0.000000 0.000000 0.000000 0.000000 0.000000 0.000000 0.000000 0.000000 0.000000 
1.6016 419.4 1.584612 0.081241 43.762936 0.000000 4.000000 89.238812 -0.013285 10000.000000 741.112874 2.000000 -0.851172 4.548828 0.030418 10000.000000 741.112874 13.494105 0.003691 0.083746 -6104.548828 1924.396606 -0.529925 -0.037809 0.390542 89.238797 2509.156006 0.020078 0.020366 0.000941 0.001026 0.000000 0.000000 0.000000 0.000000 0.000000 0.000000 0.000000 0.000000 0.000000 0.000000 0.000000 0.000000 0.000000 0.000000 0.000000 0.000000 0.000000 0.000000 0.000000 0.000000 0.000000 
1.61827 419.417 1.579358 0.083059 43.762936 0.000000 4.000000 89.245403 -0.013170 10000.000000 739.672963 2.000000 -0.854102 4.545898 0.030418 10000.000000 739.672963 13.520357 0.003549 0.083728 -6104.545898 1924.621704 -0.530064 -0.038201 0.390512 89.245388 2509.109375 0.020052 0.020337 0.000949 0.001036 0.000000 0.000000 0.000000 0.000000 0.000000 0.000000 0.000000 0.000000 0.000000 0.000000 0.000000 0.000000 0.000000 0.000000 0.000000 0.000000 0.000000 0.000000 0.000000 0.000000 0.000000 
1.63497 419.433 1.574445 0.084920 43.762936 0.000000 4.000000 89.252076 -0.013054 10000.000000 738.242744 2.000000 -0.857031 4.542969 0.030418 10000.000000 738.242744 13.546532 0.003419 0.083933 -6104.542969 1924.847290 -0.530206 -0.038504 0.390900 89.252061 2509.248291 0.020025 0.020310 0.000957 0.001044 0.000000 0.000000 0.000000 0.000000 0.000000 0.000000 0.000000 0.000000 0.000000 0.000000 0.000000 0.000000 0.000000 0.000000 0.000000 0.000000 0.000000 0.000000 0.000000 0.000000 0.000000 
1.65163 419.45 1.569810 0.086737 43.762936 0.000000 4.000000 89.258790 -0.012937 10000.000000 736.822031 2.000000 -0.859961 4.540039 0.030418 10000.000000 736.822031 13.572631 0.003303 0.084330 -6104.540039 1925.073242 -0.530347 -0.038766 0.391619 89.258776 2509.563477 0.019999 0.020284 0.000964 0.001051 0.000000 0.000000 0.000000 0.000000 0.000000 0.000000 0.000000 0.000000 0.000000 0.000000 0.000000 0.000000 0.000000 0.000000 0.000000 0.000000 0.000000 0.000000 0.000000 0.000000 0.000000 
1.66833 419.467 1.565397 0.088434 43.762936 0.000000 4.000000 89.265532 -0.012819 10000.000000 735.410592 2.000000 -0.862891 4.537109 0.030575 10000.000000 735.410592 13.598660 0.003205 0.084888 -6104.537109 1925.299683 -0.530486 -0.039026 0.392584 89.265517 2510.048828 0.019972 0.020257 0.000971 0.001056 0.000000 0.000000 0.000000 0.000000 0.000000 0.000000 0.000000 0.000000 0.000000 0.000000 0.000000 0.000000 0.000000 0.000000 0.000000 0.000000 0.000000 0.000000 0.000000 0.000000 0.000000 
1.685 419.483 1.561172 0.090012 43.762936 0.000000 4.000000 89.272287 -0.012701 10000.000000 734.008096 2.000000 -0.865820 4.534180 0.030575 10000.000000 734.008096 13.624620 0.003125 0.085577 -6104.534180 1925.526489 -0.530623 -0.039309 0.393721 89.272272 2510.698730 0.019944 0.020231 0.000977 0.001059 0.000000 0.000000 0.000000 0.000000 0.000000 0.000000 0.000000 0.000000 0.000000 0.000000 0.000000 0.000000 0.000000 0.000000 0.000000 0.000000 0.000000 0.000000 0.000000 0.000000 0.000000 
1.7017 419.5 1.557147 0.091429 43.762936 0.000000 4.000000 89.279042 -0.012583 10000.000000 732.614368 2.000000 -0.868262 4.531738 0.030889 10000.000000 732.614368 13.650517 0.003063 0.086368 -6104.531738 1925.753784 -0.530754 -0.039631 0.394960 89.279027 2511.505615 0.019917 0.020206 0.000982 0.001061 0.000000 0.000000 0.000000 0.000000 0.000000 0.000000 0.000000 0.000000 0.000000 0.000000 0.000000 0.000000 0.000000 0.000000 0.000000 0.000000 0.000000 0.000000 0.000000 0.000000 0.000000 
1.71837 419.517 1.553417 0.092728 43.762936 0.000000 4.000000 89.285790 -0.012465 10000.000000 731.228932 2.000000 -0.871191 4.528809 0.030889 10000.000000 731.228932 13.676355 0.003020 0.087235 -6104.528809 1925.981445 -0.530880 -0.039997 0.396241 89.285775 2512.460938 0.019891 0.020184 0.000985 0.001061 0.000000 0.000000 0.000000 0.000000 0.000000 0.000000 0.000000 0.000000 0.000000 0.000000 0.000000 0.000000 0.000000 0.000000 0.000000 0.000000 0.000000 0.000000 0.000000 0.000000 0.000000 
1.73507 419.533 1.549960 0.093891 43.762936 0.000000 4.000000 89.292532 -0.012348 10000.000000 729.851672 2.000000 -0.874121 4.525879 0.031360 10000.000000 729.851672 13.702139 0.002994 0.088153 -6104.525879 1926.209595 -0.530999 -0.040406 0.397512 89.292517 2513.555420 0.019865 0.020161 0.000988 0.001059 0.000000 0.000000 0.000000 0.000000 0.000000 0.000000 0.000000 0.000000 0.000000 0.000000 0.000000 0.000000 0.000000 0.000000 0.000000 0.000000 0.000000 0.000000 0.000000 0.000000 0.000000 
1.75173 419.55 1.546724 0.095013 43.762936 0.000000 4.000000 89.299259 -0.012230 10000.000000 728.482223 2.000000 -0.877051 4.522949 0.031360 10000.000000 728.482223 13.727873 0.002985 0.089101 -6104.522949 1926.438232 -0.531110 -0.040855 0.398730 89.299244 2514.779541 0.019839 0.020138 0.000990 0.001057 0.000000 0.000000 0.000000 0.000000 0.000000 0.000000 0.000000 0.000000 0.000000 0.000000 0.000000 0.000000 0.000000 0.000000 0.000000 0.000000 0.000000 0.000000 0.000000 0.000000 0.000000 
1.76843 419.567 1.543675 0.096003 43.762936 0.000000 4.000000 89.305980 -0.012113 10000.000000 727.120474 2.000000 -0.879492 4.520508 0.031831 10000.000000 727.120474 13.753557 0.002988 0.090059 -6104.520508 1926.667236 -0.531214 -0.041334 0.399856 89.305965 2516.123047 0.019813 0.020115 0.000992 0.001054 0.000000 0.000000 0.000000 0.000000 0.000000 0.000000 0.000000 0.000000 0.000000 0.000000 0.000000 0.000000 0.000000 0.000000 0.000000 0.000000 0.000000 0.000000 0.000000 0.000000 0.000000 
1.7851 419.583 1.540797 0.096938 43.762936 0.000000 4.000000 89.312708 -0.011996 10000.000000 725.766218 2.000000 -0.882422 4.517578 0.031831 10000.000000 725.766218 13.779197 0.003004 0.091008 -6104.517578 1926.896606 -0.531308 -0.041833 0.400860 89.312693 2517.576904 0.019786 0.020092 0.000993 0.001051 0.000000 0.000000 0.000000 0.000000 0.000000 0.000000 0.000000 0.000000 0.000000 0.000000 0.000000 0.000000 0.000000 0.000000 0.000000 0.000000 0.000000 0.000000 0.000000 0.000000 0.000000 
1.8018 419.617 1.535495 0.098696 43.762936 0.000000 4.000000 89.326184 -0.011760 10000.000000 723.079365 2.000000 -0.887793 4.512207 0.032616 10000.000000 723.079365 13.830349 0.003061 0.092824 -6104.512207 1927.356812 -0.531470 -0.042848 0.402413 89.326169 2520.785645 0.019733 0.020046 0.000994 0.001045 0.000000 0.000000 0.000000 0.000000 0.000000 0.000000 0.000000 0.000000 0.000000 0.000000 0.000000 0.000000 0.000000 0.000000 0.000000 0.000000 0.000000 0.000000 0.000000 0.000000 0.000000 
1.81847 419.633 1.533044 0.099692 43.762936 0.000000 4.000000 89.332959 -0.011642 10000.000000 721.746515 2.000000 -0.890234 4.509766 0.033558 10000.000000 721.746515 13.855865 0.003105 0.093665 -6104.509766 1927.587524 -0.531537 -0.043354 0.402932 89.332945 2522.527832 0.019706 0.020023 0.000994 0.001042 0.000000 0.000000 0.000000 0.000000 0.000000 0.000000 0.000000 0.000000 0.000000 0.000000 0.000000 0.000000 0.000000 0.000000 0.000000 0.000000 0.000000 0.000000 0.000000 0.000000 0.000000 
1.83517 419.633 1.533044 0.099692 43.762936 0.000000 4.000000 89.332959 -0.011642 10000.000000 721.746515 2.000000 -0.890234 4.509766 0.033558 10000.000000 721.746515 13.855865 0.003105 0.093665 -6104.509766 1927.587524 -0.531537 -0.043354 0.402932 89.332945 2522.527832 0.019706 0.020023 0.000994 0.001042 0.000000 0.000000 0.000000 0.000000 0.000000 0.000000 0.000000 0.000000 0.000000 0.000000 0.000000 0.000000 0.000000 0.000000 0.000000 0.000000 0.000000 0.000000 0.000000 0.000000 0.000000 
1.85183 419.65 1.530711 0.100877 43.762936 0.000000 4.000000 89.339769 -0.011523 10000.000000 720.420500 2.000000 -0.893164 4.506836 0.033558 10000.000000 720.420500 13.881346 0.003158 0.094451 -6104.506836 1927.818604 -0.531596 -0.043860 0.403269 89.339754 2524.354492 0.019679 0.019999 0.000995 0.001039 0.000000 0.000000 0.000000 0.000000 0.000000 0.000000 0.000000 0.000000 0.000000 0.000000 0.000000 0.000000 0.000000 0.000000 0.000000 0.000000 0.000000 0.000000 0.000000 0.000000 0.000000 
1.86853 419.667 1.528489 0.102153 43.762936 0.000000 4.000000 89.346627 -0.011404 10000.000000 719.101222 2.000000 -0.895605 4.504395 0.035129 10000.000000 719.101222 13.906790 0.003221 0.095172 -6104.504395 1928.050171 -0.531646 -0.044369 0.403420 89.346612 2526.260498 0.019653 0.019977 0.000996 0.001037 0.000000 0.000000 0.000000 0.000000 0.000000 0.000000 0.000000 0.000000 0.000000 0.000000 0.000000 0.000000 0.000000 0.000000 0.000000 0.000000 0.000000 0.000000 0.000000 0.000000 0.000000 
1.8852 419.683 1.526368 0.103837 43.762936 0.000000 4.000000 89.353546 -0.011283 10000.000000 717.788487 2.000000 -0.898047 4.501953 0.036699 10000.000000 717.788487 13.932200 0.003297 0.095826 -6104.501953 1928.282227 -0.531688 -0.044897 0.403388 89.353531 2528.240967 0.019626 0.019955 0.000997 0.001035 0.000000 0.000000 0.000000 0.000000 0.000000 0.000000 0.000000 0.000000 0.000000 0.000000 0.000000 0.000000 0.000000 0.000000 0.000000 0.000000 0.000000 0.000000 0.000000 0.000000 0.000000 
1.9019 419.7 1.524343 0.105733 43.762936 0.000000 4.000000 89.360547 -0.011161 10000.000000 716.482152 2.000000 -0.900488 4.499512 0.036699 10000.000000 716.482152 13.957580 0.003388 0.096407 -6104.499512 1928.514526 -0.531722 -0.045456 0.403177 89.360532 2530.290771 0.019600 0.019934 0.000998 0.001033 0.000000 0.000000 0.000000 0.000000 0.000000 0.000000 0.000000 0.000000 0.000000 0.000000 0.000000 0.000000 0.000000 0.000000 0.000000 0.000000 0.000000 0.000000 0.000000 0.000000 0.000000 
1.91857 419.717 1.522405 0.107796 43.762936 0.000000 4.000000 89.367643 -0.011037 10000.000000 715.182221 2.000000 -0.903418 4.496582 0.038584 10000.000000 715.182221 13.982927 0.003485 0.096916 -6104.496582 1928.747437 -0.531748 -0.046061 0.402794 89.367628 2532.405762 0.019573 0.019912 0.000999 0.001033 0.000000 0.000000 0.000000 0.000000 0.000000 0.000000 0.000000 0.000000 0.000000 0.000000 0.000000 0.000000 0.000000 0.000000 0.000000 0.000000 0.000000 0.000000 0.000000 0.000000 0.000000 
1.93527 419.733 1.520554 0.109994 43.762936 0.000000 4.000000 89.374849 -0.010911 10000.000000 713.888506 2.000000 -0.905859 4.494141 0.038584 10000.000000 713.888506 14.008245 0.003595 0.097351 -6104.494141 1928.980713 -0.531768 -0.046721 0.402252 89.374834 2534.582031 0.019547 0.019893 0.001002 0.001033 0.000000 0.000000 0.000000 0.000000 0.000000 0.000000 0.000000 0.000000 0.000000 0.000000 0.000000 0.000000 0.000000 0.000000 0.000000 0.000000 0.000000 0.000000 0.000000 0.000000 0.000000 
1.95193 419.75 1.518778 0.112361 43.762936 0.000000 4.000000 89.382178 -0.010783 10000.000000 712.600916 2.000000 -0.908301 4.491699 0.040311 10000.000000 712.600916 14.033535 0.003708 0.097714 -6104.491699 1929.214355 -0.531782 -0.047448 0.401561 89.382163 2536.815186 0.019522 0.019874 0.001004 0.001033 0.000000 0.000000 0.000000 0.000000 0.000000 0.000000 0.000000 0.000000 0.000000 0.000000 0.000000 0.000000 0.000000 0.000000 0.000000 0.000000 0.000000 0.000000 0.000000 0.000000 0.000000 
1.96863 419.767 1.517046 0.114936 43.762936 0.000000 4.000000 89.389657 -0.010652 10000.000000 711.319361 2.000000 -0.910742 4.489258 0.040311 10000.000000 711.319361 14.058797 0.003832 0.098016 -6104.489258 1929.448486 -0.531790 -0.048259 0.400734 89.389642 2539.101807 0.019499 0.019856 0.001007 0.001035 0.000000 0.000000 0.000000 0.000000 0.000000 0.000000 0.000000 0.000000 0.000000 0.000000 0.000000 0.000000 0.000000 0.000000 0.000000 0.000000 0.000000 0.000000 0.000000 0.000000 0.000000 
1.9853 419.783 1.515366 0.117435 43.762936 0.000000 4.000000 89.397293 -0.010519 10000.000000 710.043801 2.000000 -0.913184 4.486816 0.042509 10000.000000 710.043801 14.084032 0.003952 0.098260 -6104.486816 1929.682983 -0.531793 -0.049179 0.399779 89.397278 2541.439697 0.019479 0.019839 0.001011 0.001037 0.000000 0.000000 0.000000 0.000000 0.000000 0.000000 0.000000 0.000000 0.000000 0.000000 0.000000 0.000000 0.000000 0.000000 0.000000 0.000000 0.000000 0.000000 0.000000 0.000000 0.000000 
